{"type":"FeatureCollection","features":[{"type":"Feature","id":11401,"geometry":{"type":"Point","coordinates":[120.32528307191576,22.975866214570551]},"properties":{"OBJECTID":11401,"LANDMARKID":"1001100000747","LANDMARKCO":"308","LANDMARKNA":"國3-關廟交流道-南下","LANDMARKAD":"1001129","ADDRESS":"台南市關廟區","TEL":" ","COUNTYNAME":"台南市","TOWNNAME":"關廟區","MARKTYPE":"993","Class":"308"}},{"type":"Feature","id":11402,"geometry":{"type":"Point","coordinates":[120.31226117722147,22.969710117271116]},"properties":{"OBJECTID":11402,"LANDMARKID":"1001100000748","LANDMARKCO":"308","LANDMARKNA":"台86-歸仁交流道-東行","LANDMARKAD":"1001129","ADDRESS":" ","TEL":" ","COUNTYNAME":"台南市","TOWNNAME":"關廟區","MARKTYPE":"993","Class":"308"}},{"type":"Feature","id":11403,"geometry":{"type":"Point","coordinates":[120.32313880394854,22.976985053485389]},"properties":{"OBJECTID":11403,"LANDMARKID":"1001100000749","LANDMARKCO":"308","LANDMARKNA":"台86-關廟交流道-西行","LANDMARKAD":"1001129","ADDRESS":" ","TEL":" ","COUNTYNAME":"台南市","TOWNNAME":"關廟區","MARKTYPE":"993","Class":"308"}},{"type":"Feature","id":11404,"geometry":{"type":"Point","coordinates":[120.32314461571484,22.976824275356861]},"properties":{"OBJECTID":11404,"LANDMARKID":"1001100000750","LANDMARKCO":"308","LANDMARKNA":"台86-關廟交流道-西行","LANDMARKAD":"1001129","ADDRESS":" ","TEL":" ","COUNTYNAME":"台南市","TOWNNAME":"關廟區","MARKTYPE":"993","Class":"308"}},{"type":"Feature","id":11405,"geometry":{"type":"Point","coordinates":[120.32604035956088,22.960114304850038]},"properties":{"OBJECTID":11405,"LANDMARKID":"1001100000682","LANDMARKCO":"302","LANDMARKNA":"台南汽車客運關廟站","LANDMARKAD":"1001129","ADDRESS":"台南市關廟區","TEL":" ","COUNTYNAME":"台南市","TOWNNAME":"關廟區","MARKTYPE":"993","Class":"302"}},{"type":"Feature","id":11406,"geometry":{"type":"Point","coordinates":[120.32540171520395,22.961448018194794]},"properties":{"OBJECTID":11406,"LANDMARKID":"1001100000734","LANDMARKCO":"303","LANDMARKNA":"山西宮停車場","LANDMARKAD":"1001129","ADDRESS":"台南市關廟區正義街","TEL":" ","COUNTYNAME":"台南市","TOWNNAME":"關廟區","MARKTYPE":"993","Class":"303"}},{"type":"Feature","id":11407,"geometry":{"type":"Point","coordinates":[120.32740517318149,22.963164263924465]},"properties":{"OBJECTID":11407,"LANDMARKID":"1001100000844","LANDMARKCO":"402","LANDMARKNA":"中華電信-關廟服務中心","LANDMARKAD":"1001129","ADDRESS":"台南市關廟區忠孝街113號","TEL":"(06)595-2811","COUNTYNAME":"台南市","TOWNNAME":"關廟區","MARKTYPE":"994","Class":"4"}},{"type":"Feature","id":11408,"geometry":{"type":"Point","coordinates":[120.32698917214569,22.962826603695728]},"properties":{"OBJECTID":11408,"LANDMARKID":"1001100001400","LANDMARKCO":"603","LANDMARKNA":"山福旅社","LANDMARKAD":"1001129","ADDRESS":"台南市關廟區山西村中正路1011號","TEL":"06-5952289","COUNTYNAME":"台南市","TOWNNAME":"關廟區","MARKTYPE":"996","Class":"6"}},{"type":"Feature","id":11409,"geometry":{"type":"Point","coordinates":[120.3282734986422,22.957380398252965]},"properties":{"OBJECTID":11409,"LANDMARKID":"1001100001401","LANDMARKCO":"603","LANDMARKNA":"玉山大旅社","LANDMARKAD":"1001129","ADDRESS":"台南市關廟區五甲村南雄路1段1086號","TEL":"06-5952616","COUNTYNAME":"台南市","TOWNNAME":"關廟區","MARKTYPE":"996","Class":"6"}},{"type":"Feature","id":11410,"geometry":{"type":"Point","coordinates":[120.32739236971614,22.962486865235707]},"properties":{"OBJECTID":11410,"LANDMARKID":"1001100001402","LANDMARKCO":"603","LANDMARKNA":"香洋旅社","LANDMARKAD":"1001129","ADDRESS":"台南市關廟區關廟村忠孝街128號","TEL":"06-5952043","COUNTYNAME":"台南市","TOWNNAME":"關廟區","MARKTYPE":"996","Class":"6"}},{"type":"Feature","id":11411,"geometry":{"type":"Point","coordinates":[120.32959189440292,22.912646371577964]},"properties":{"OBJECTID":11411,"LANDMARKID":"1001100001356","LANDMARKCO":"510","LANDMARKNA":"南一高爾夫球場","LANDMARKAD":"1001129","ADDRESS":"台南市關廟區布袋村布袋111-6號","TEL":"06-5551117","COUNTYNAME":"台南市","TOWNNAME":"關廟區","MARKTYPE":"995","Class":"5"}},{"type":"Feature","id":11412,"geometry":{"type":"Point","coordinates":[120.30336335069458,22.998072892324508]},"properties":{"OBJECTID":11412,"LANDMARKID":"1001100001439","LANDMARKCO":"605","LANDMARKNA":"二龍山","LANDMARKAD":"1001129","ADDRESS":"台南市關廟區","TEL":" ","COUNTYNAME":"台南市","TOWNNAME":"關廟區","MARKTYPE":"996","Class":"6"}},{"type":"Feature","id":11413,"geometry":{"type":"Point","coordinates":[120.29811970382374,22.983252301805614]},"properties":{"OBJECTID":11413,"LANDMARKID":"1001100001440","LANDMARKCO":"605","LANDMARKNA":"上帝廟","LANDMARKAD":"1001129","ADDRESS":"台南市關廟區","TEL":" ","COUNTYNAME":"台南市","TOWNNAME":"關廟區","MARKTYPE":"996","Class":"6"}},{"type":"Feature","id":11414,"geometry":{"type":"Point","coordinates":[120.32256352581484,22.975986756439799]},"properties":{"OBJECTID":11414,"LANDMARKID":"1001100001441","LANDMARKCO":"605","LANDMARKNA":"濟生堂","LANDMARKAD":"1001129","ADDRESS":"台南市關廟區","TEL":" ","COUNTYNAME":"台南市","TOWNNAME":"關廟區","MARKTYPE":"996","Class":"6"}},{"type":"Feature","id":11415,"geometry":{"type":"Point","coordinates":[120.31854575825041,22.971349684181614]},"properties":{"OBJECTID":11415,"LANDMARKID":"1001100001442","LANDMARKCO":"605","LANDMARKNA":"大師府","LANDMARKAD":"1001129","ADDRESS":"台南市關廟區","TEL":" ","COUNTYNAME":"台南市","TOWNNAME":"關廟區","MARKTYPE":"996","Class":"6"}},{"type":"Feature","id":11416,"geometry":{"type":"Point","coordinates":[120.31745021969074,22.974866683872868]},"properties":{"OBJECTID":11416,"LANDMARKID":"1001100001443","LANDMARKCO":"605","LANDMARKNA":"忠義聖堂","LANDMARKAD":"1001129","ADDRESS":"台南市關廟區","TEL":" ","COUNTYNAME":"台南市","TOWNNAME":"關廟區","MARKTYPE":"996","Class":"6"}},{"type":"Feature","id":11417,"geometry":{"type":"Point","coordinates":[120.3276566848113,22.963380109928142]},"properties":{"OBJECTID":11417,"LANDMARKID":"1001100001444","LANDMARKCO":"605","LANDMARKNA":"台南市關廟區鄉民代表會","LANDMARKAD":"1001129","ADDRESS":"台南市關廟區","TEL":" ","COUNTYNAME":"台南市","TOWNNAME":"關廟區","MARKTYPE":"996","Class":"6"}},{"type":"Feature","id":11418,"geometry":{"type":"Point","coordinates":[120.32497815696379,22.961877213416898]},"properties":{"OBJECTID":11418,"LANDMARKID":"1001100001445","LANDMARKCO":"605","LANDMARKNA":"山西宮","LANDMARKAD":"1001129","ADDRESS":"台南市關廟區","TEL":" ","COUNTYNAME":"台南市","TOWNNAME":"關廟區","MARKTYPE":"996","Class":"6"}},{"type":"Feature","id":11419,"geometry":{"type":"Point","coordinates":[120.32402280842943,22.962208204187242]},"properties":{"OBJECTID":11419,"LANDMARKID":"1001100001446","LANDMARKCO":"605","LANDMARKNA":"元帥宮","LANDMARKAD":"1001129","ADDRESS":"台南市關廟區","TEL":" ","COUNTYNAME":"台南市","TOWNNAME":"關廟區","MARKTYPE":"996","Class":"6"}},{"type":"Feature","id":11420,"geometry":{"type":"Point","coordinates":[120.25289552793434,22.957318319550581]},"properties":{"OBJECTID":11420,"LANDMARKID":"1001100001101","LANDMARKCO":"405","LANDMARKNA":"統一速邁樂加油站-仁德二站加油站(中油)","LANDMARKAD":"1001127","ADDRESS":"台南市仁德區中正路二段596號","TEL":"06-2796768","COUNTYNAME":"台南市","TOWNNAME":"仁德區","MARKTYPE":"994","Class":"4"}},{"type":"Feature","id":11421,"geometry":{"type":"Point","coordinates":[120.27127669336194,22.969267087119171]},"properties":{"OBJECTID":11421,"LANDMARKID":"1001100001102","LANDMARKCO":"405","LANDMARKNA":"統一速邁樂加油站-仁德成功加油站(中油)","LANDMARKAD":"1001127","ADDRESS":"台南市仁德區仁義村中山路3號","TEL":" ","COUNTYNAME":"台南市","TOWNNAME":"仁德區","MARKTYPE":"994","Class":"4"}},{"type":"Feature","id":11422,"geometry":{"type":"Point","coordinates":[120.26677702505404,22.905870421735113]},"properties":{"OBJECTID":11422,"LANDMARKID":"1001100001103","LANDMARKCO":"405","LANDMARKNA":"中油加油站-仁德北上站(中油直營)","LANDMARKAD":"1001127","ADDRESS":"台南市仁德區中洲村中洲1之96號","TEL":"06-2782879","COUNTYNAME":"台南市","TOWNNAME":"仁德區","MARKTYPE":"994","Class":"4"}},{"type":"Feature","id":11423,"geometry":{"type":"Point","coordinates":[120.26495328183451,22.905374815806919]},"properties":{"OBJECTID":11423,"LANDMARKID":"1001100001104","LANDMARKCO":"405","LANDMARKNA":"中油加油站-仁德南下站(中油直營)","LANDMARKAD":"1001127","ADDRESS":"台南市仁德區中洲村中洲1之95號","TEL":"06-3660758","COUNTYNAME":"台南市","TOWNNAME":"仁德區","MARKTYPE":"994","Class":"4"}},{"type":"Feature","id":11424,"geometry":{"type":"Point","coordinates":[120.24550250237566,22.957322730096269]},"properties":{"OBJECTID":11424,"LANDMARKID":"1001100001105","LANDMARKCO":"405","LANDMARKNA":"中油加油站-全晟站","LANDMARKAD":"1001127","ADDRESS":"台南市仁德區新田村民安路1段273號","TEL":"06-2908569","COUNTYNAME":"台南市","TOWNNAME":"仁德區","MARKTYPE":"994","Class":"4"}},{"type":"Feature","id":11425,"geometry":{"type":"Point","coordinates":[120.2655229033646,22.991345309857831]},"properties":{"OBJECTID":11425,"LANDMARKID":"1001100001106","LANDMARKCO":"405","LANDMARKNA":"中油加油站-仁德太子站","LANDMARKAD":"1001127","ADDRESS":"台南市仁德區土庫村太子路143號","TEL":"06-2721268","COUNTYNAME":"台南市","TOWNNAME":"仁德區","MARKTYPE":"994","Class":"4"}},{"type":"Feature","id":11426,"geometry":{"type":"Point","coordinates":[120.24294673914642,22.927566158936862]},"properties":{"OBJECTID":11426,"LANDMARKID":"1001100001107","LANDMARKCO":"405","LANDMARKNA":"中油加油站-大德站","LANDMARKAD":"1001127","ADDRESS":"台南市仁德區三甲村三甲子57-10號","TEL":"06-2660797","COUNTYNAME":"台南市","TOWNNAME":"仁德區","MARKTYPE":"994","Class":"4"}},{"type":"Feature","id":11427,"geometry":{"type":"Point","coordinates":[120.22370033121055,22.922182477456264]},"properties":{"OBJECTID":11427,"LANDMARKID":"1001100001108","LANDMARKCO":"405","LANDMARKNA":"中油加油站-新力站","LANDMARKAD":"1001127","ADDRESS":"台南市仁德區二行村二仁路1段235號","TEL":"06-3661536","COUNTYNAME":"台南市","TOWNNAME":"仁德區","MARKTYPE":"994","Class":"4"}},{"type":"Feature","id":11428,"geometry":{"type":"Point","coordinates":[120.23266285968383,22.919654931317659]},"properties":{"OBJECTID":11428,"LANDMARKID":"1001100001109","LANDMARKCO":"405","LANDMARKNA":"中油加油站-元升站","LANDMARKAD":"1001127","ADDRESS":"台南市仁德區保安村中正路一段103號","TEL":"06-2665131","COUNTYNAME":"台南市","TOWNNAME":"仁德區","MARKTYPE":"994","Class":"4"}},{"type":"Feature","id":11429,"geometry":{"type":"Point","coordinates":[120.21885893909874,22.946817070145912]},"properties":{"OBJECTID":11429,"LANDMARKID":"1001100001110","LANDMARKCO":"405","LANDMARKNA":"台糖加油站-虎山站(中油)","LANDMARKAD":"1001127","ADDRESS":"台南市仁德區仁愛村28鄰仁愛1152號","TEL":" ","COUNTYNAME":"台南市","TOWNNAME":"仁德區","MARKTYPE":"994","Class":"4"}},{"type":"Feature","id":11430,"geometry":{"type":"Point","coordinates":[120.25759208513011,22.98818192654694]},"properties":{"OBJECTID":11430,"LANDMARKID":"1001100001111","LANDMARKCO":"405","LANDMARKNA":"中油加油站-廣信站(中油直營)","LANDMARKAD":"1001127","ADDRESS":"台南市仁德區土庫村中正路三段583號","TEL":"06-2720478","COUNTYNAME":"台南市","TOWNNAME":"仁德區","MARKTYPE":"994","Class":"4"}},{"type":"Feature","id":11431,"geometry":{"type":"Point","coordinates":[120.24421670392019,22.973517190848892]},"properties":{"OBJECTID":11431,"LANDMARKID":"1001100001112","LANDMARKCO":"405","LANDMARKNA":"中油加油站-仁德東和站","LANDMARKAD":"1001127","ADDRESS":"台南市仁德區中山路861號","TEL":"06-2709018","COUNTYNAME":"台南市","TOWNNAME":"仁德區","MARKTYPE":"994","Class":"4"}},{"type":"Feature","id":11432,"geometry":{"type":"Point","coordinates":[120.27008636653056,22.954019966300081]},"properties":{"OBJECTID":11432,"LANDMARKID":"1001100001113","LANDMARKCO":"405","LANDMARKNA":"中油加油站-統好站","LANDMARKAD":"1001127","ADDRESS":"台南市仁德區勝利路361號","TEL":"06-2709927","COUNTYNAME":"台南市","TOWNNAME":"仁德區","MARKTYPE":"994","Class":"4"}},{"type":"Feature","id":11433,"geometry":{"type":"Point","coordinates":[120.2525729389445,22.959151277129347]},"properties":{"OBJECTID":11433,"LANDMARKID":"1001100001114","LANDMARKCO":"405","LANDMARKNA":"中油加油站-統好仁德站","LANDMARKAD":"1001127","ADDRESS":"台南市仁德區中正路二段631號","TEL":"06-2706045","COUNTYNAME":"台南市","TOWNNAME":"仁德區","MARKTYPE":"994","Class":"4"}},{"type":"Feature","id":11434,"geometry":{"type":"Point","coordinates":[120.25684588083438,22.980524089033686]},"properties":{"OBJECTID":11434,"LANDMARKID":"1001100001115","LANDMARKCO":"405","LANDMARKNA":"中油加油站-瑞泰加油站(中油直營)","LANDMARKAD":"1001127","ADDRESS":"台南市仁德區中正路三段３１２號","TEL":" ","COUNTYNAME":"台南市","TOWNNAME":"仁德區","MARKTYPE":"994","Class":"4"}},{"type":"Feature","id":11435,"geometry":{"type":"Point","coordinates":[120.23927468887479,22.975412901978324]},"properties":{"OBJECTID":11435,"LANDMARKID":"1001100001116","LANDMARKCO":"405","LANDMARKNA":"中油加油站-仁德成功","LANDMARKAD":"1001127","ADDRESS":"台南市仁德區中山路3號","TEL":"06-2796850","COUNTYNAME":"台南市","TOWNNAME":"仁德區","MARKTYPE":"994","Class":"4"}},{"type":"Feature","id":11436,"geometry":{"type":"Point","coordinates":[120.24023553497715,22.959353367213215]},"properties":{"OBJECTID":11436,"LANDMARKID":"1001100001117","LANDMARKCO":"405","LANDMARKNA":"中油加油站-民安站","LANDMARKAD":"1001127","ADDRESS":"台南市仁德區民安路一段325號","TEL":"06-2893335","COUNTYNAME":"台南市","TOWNNAME":"仁德區","MARKTYPE":"994","Class":"4"}},{"type":"Feature","id":11437,"geometry":{"type":"Point","coordinates":[120.25083824310748,22.945341202216163]},"properties":{"OBJECTID":11437,"LANDMARKID":"1001100001118","LANDMARKCO":"405","LANDMARKNA":"中油加油站-統好力通站","LANDMARKAD":"1001127","ADDRESS":"台南市仁德區後壁村中正路二段104號","TEL":"06-2493310","COUNTYNAME":"台南市","TOWNNAME":"仁德區","MARKTYPE":"994","Class":"4"}},{"type":"Feature","id":11438,"geometry":{"type":"Point","coordinates":[120.22257174380641,22.950394762948651]},"properties":{"OBJECTID":11438,"LANDMARKID":"1001100001119","LANDMARKCO":"405","LANDMARKNA":"台糖加油站-仁德站(中油)","LANDMARKAD":"1001127","ADDRESS":"台南市仁德區仁愛村仁愛1163號","TEL":" ","COUNTYNAME":"台南市","TOWNNAME":"仁德區","MARKTYPE":"994","Class":"4"}},{"type":"Feature","id":11439,"geometry":{"type":"Point","coordinates":[120.25445247969199,22.97098775449593]},"properties":{"OBJECTID":11439,"LANDMARKID":"1001100001120","LANDMARKCO":"405","LANDMARKNA":"中油加油站-仁德站(中油直營)","LANDMARKAD":"1001127","ADDRESS":"台南市仁德區中山路505號","TEL":"06-2794451","COUNTYNAME":"台南市","TOWNNAME":"仁德區","MARKTYPE":"994","Class":"4"}},{"type":"Feature","id":11440,"geometry":{"type":"Point","coordinates":[120.24399478546695,22.974318785273297]},"properties":{"OBJECTID":11440,"LANDMARKID":"1001100001121","LANDMARKCO":"405","LANDMARKNA":"中油加油站-嘉仁站","LANDMARKAD":"1001127","ADDRESS":"台南市仁德區中山路824號","TEL":"06-2490866","COUNTYNAME":"台南市","TOWNNAME":"仁德區","MARKTYPE":"994","Class":"4"}},{"type":"Feature","id":11441,"geometry":{"type":"Point","coordinates":[120.25756279177138,22.982239752555301]},"properties":{"OBJECTID":11441,"LANDMARKID":"1001100001122","LANDMARKCO":"405","LANDMARKNA":"中油加油站-瑞廷加油站(中油直營)","LANDMARKAD":"1001127","ADDRESS":"台南市仁德區中正路三段３６１號","TEL":" ","COUNTYNAME":"台南市","TOWNNAME":"仁德區","MARKTYPE":"994","Class":"4"}},{"type":"Feature","id":11442,"geometry":{"type":"Point","coordinates":[120.24467626710643,22.973860405504503]},"properties":{"OBJECTID":11442,"LANDMARKID":"1001100001123","LANDMARKCO":"405","LANDMARKNA":"統一速邁樂加油站-仁德加油站(中油)","LANDMARKAD":"1001127","ADDRESS":"台南市仁德區仁德村中山路814之1號","TEL":"06-2496042","COUNTYNAME":"台南市","TOWNNAME":"仁德區","MARKTYPE":"994","Class":"4"}},{"type":"Feature","id":11443,"geometry":{"type":"Point","coordinates":[120.25487760393025,22.971129467073069]},"properties":{"OBJECTID":11443,"LANDMARKID":"1001100000845","LANDMARKCO":"402","LANDMARKNA":"My Phone台灣大哥大-台南仁德直營服務中心","LANDMARKAD":"1001127","ADDRESS":"台南市仁德區仁義村中山路497號","TEL":"0809-000-166","COUNTYNAME":"台南市","TOWNNAME":"仁德區","MARKTYPE":"994","Class":"4"}},{"type":"Feature","id":11444,"geometry":{"type":"Point","coordinates":[120.25206260051235,22.971703053242532]},"properties":{"OBJECTID":11444,"LANDMARKID":"1001100000846","LANDMARKCO":"402","LANDMARKNA":"亞太行動寬頻電信-仁德中山加盟服務中心","LANDMARKAD":"1001127","ADDRESS":"台南市仁德區中山路580號","TEL":"06-2490059","COUNTYNAME":"台南市","TOWNNAME":"仁德區","MARKTYPE":"994","Class":"4"}},{"type":"Feature","id":11445,"geometry":{"type":"Point","coordinates":[120.24191449568147,22.976721260811861]},"properties":{"OBJECTID":11445,"LANDMARKID":"1001100000837","LANDMARKCO":"401","LANDMARKNA":"行政院衛生署嘉南療養院","LANDMARKAD":"1001127","ADDRESS":"台南市仁德區仁德村中山路870巷80號","TEL":"06-2795019","COUNTYNAME":"台南市","TOWNNAME":"仁德區","MARKTYPE":"994","Class":"4"}},{"type":"Feature","id":11446,"geometry":{"type":"Point","coordinates":[120.24181147657404,22.975465042350692]},"properties":{"OBJECTID":11446,"LANDMARKID":"1001100000838","LANDMARKCO":"401","LANDMARKNA":"行政院衛生署胸腔病院","LANDMARKAD":"1001127","ADDRESS":"台南市仁德區仁德村中山路864號","TEL":"06-2705911","COUNTYNAME":"台南市","TOWNNAME":"仁德區","MARKTYPE":"994","Class":"4"}},{"type":"Feature","id":11447,"geometry":{"type":"Point","coordinates":[120.2348467729727,22.920931765572544]},"properties":{"OBJECTID":11447,"LANDMARKID":"1001100001184","LANDMARKCO":"408","LANDMARKNA":"郵局-仁德車路墘郵局","LANDMARKAD":"1001127","ADDRESS":"台南市仁德區中正路1段181號","TEL":"(06)2662-944","COUNTYNAME":"台南市","TOWNNAME":"仁德區","MARKTYPE":"994","Class":"4"}},{"type":"Feature","id":11448,"geometry":{"type":"Point","coordinates":[120.26028673218008,22.991020598619869]},"properties":{"OBJECTID":11448,"LANDMARKID":"1001100001185","LANDMARKCO":"408","LANDMARKNA":"郵局-仁德太子郵局","LANDMARKAD":"1001127","ADDRESS":"台南市仁德區土庫路2號","TEL":"(06)2724-666","COUNTYNAME":"台南市","TOWNNAME":"仁德區","MARKTYPE":"994","Class":"4"}},{"type":"Feature","id":11449,"geometry":{"type":"Point","coordinates":[120.25236695370661,22.969746344414727]},"properties":{"OBJECTID":11449,"LANDMARKID":"1001100001186","LANDMARKCO":"408","LANDMARKNA":"郵局-仁德郵局","LANDMARKAD":"1001127","ADDRESS":"台南市仁德區中正路2段1118號","TEL":"(06)2700-982","COUNTYNAME":"台南市","TOWNNAME":"仁德區","MARKTYPE":"994","Class":"4"}},{"type":"Feature","id":11450,"geometry":{"type":"Point","coordinates":[120.22315729092266,22.958632649118094]},"properties":{"OBJECTID":11450,"LANDMARKID":"1001100001187","LANDMARKCO":"408","LANDMARKNA":"郵局-仁德二空郵局","LANDMARKAD":"1001127","ADDRESS":"台南市仁德區仁愛村79號","TEL":"(06)2682-328","COUNTYNAME":"台南市","TOWNNAME":"仁德區","MARKTYPE":"994","Class":"4"}},{"type":"Feature","id":11451,"geometry":{"type":"Point","coordinates":[120.25186041765281,22.953792851189373]},"properties":{"OBJECTID":11451,"LANDMARKID":"1001100001188","LANDMARKCO":"408","LANDMARKNA":"郵局-仁德後壁厝郵局","LANDMARKAD":"1001127","ADDRESS":"台南市仁德區中正路2段417、419號","TEL":"(06)2700-674","COUNTYNAME":"台南市","TOWNNAME":"仁德區","MARKTYPE":"994","Class":"4"}},{"type":"Feature","id":11452,"geometry":{"type":"Point","coordinates":[120.2543037805533,22.967116261415374]},"properties":{"OBJECTID":11452,"LANDMARKID":"1001100001290","LANDMARKCO":"409","LANDMARKNA":"台南市仁德區農會","LANDMARKAD":"1001127","ADDRESS":"台南市仁德區仁義村中正路二段1136號","TEL":"06-2793911-5","COUNTYNAME":"台南市","TOWNNAME":"仁德區","MARKTYPE":"994","Class":"4"}},{"type":"Feature","id":11453,"geometry":{"type":"Point","coordinates":[120.25844443592599,22.968007317300223]},"properties":{"OBJECTID":11453,"LANDMARKID":"1001100001136","LANDMARKCO":"406","LANDMARKNA":"仁德運動公園","LANDMARKAD":"1001127","ADDRESS":"台南市仁德區","TEL":" ","COUNTYNAME":"台南市","TOWNNAME":"仁德區","MARKTYPE":"994","Class":"4"}},{"type":"Feature","id":11454,"geometry":{"type":"Point","coordinates":[120.26243573939519,22.911034389650361]},"properties":{"OBJECTID":11454,"LANDMARKID":"1001100001137","LANDMARKCO":"406","LANDMARKNA":"仁德區體育公園","LANDMARKAD":"1001127","ADDRESS":"台南市仁德區","TEL":" ","COUNTYNAME":"台南市","TOWNNAME":"仁德區","MARKTYPE":"994","Class":"4"}},{"type":"Feature","id":11455,"geometry":{"type":"Point","coordinates":[120.22090000226015,22.945492219417883]},"properties":{"OBJECTID":11455,"LANDMARKID":"1001100001183","LANDMARKCO":"407","LANDMARKNA":"台糖嘉年華","LANDMARKAD":"1001127","ADDRESS":"台南市仁德區仁愛村仁愛路1211號","TEL":"06-2908888","COUNTYNAME":"台南市","TOWNNAME":"仁德區","MARKTYPE":"994","Class":"4"}},{"type":"Feature","id":11456,"geometry":{"type":"Point","coordinates":[120.22591499044412,22.919016406895267]},"properties":{"OBJECTID":11456,"LANDMARKID":"1001100001124","LANDMARKCO":"405","LANDMARKNA":"福懋加油站-仁德站(台塑)","LANDMARKAD":"1001127","ADDRESS":"台南市仁德區二仁路一段48號","TEL":"06-2663833","COUNTYNAME":"台南市","TOWNNAME":"仁德區","MARKTYPE":"994","Class":"4"}},{"type":"Feature","id":11457,"geometry":{"type":"Point","coordinates":[120.21301589508191,22.919167960610348]},"properties":{"OBJECTID":11457,"LANDMARKID":"1001100001125","LANDMARKCO":"405","LANDMARKNA":"台塑加油站-高昇站(台塑)","LANDMARKAD":"1001127","ADDRESS":"台南市仁德區大甲村中正西路510號","TEL":"06-2669277","COUNTYNAME":"台南市","TOWNNAME":"仁德區","MARKTYPE":"994","Class":"4"}},{"type":"Feature","id":11458,"geometry":{"type":"Point","coordinates":[120.23864430810335,22.960112309768206]},"properties":{"OBJECTID":11458,"LANDMARKID":"1001100001126","LANDMARKCO":"405","LANDMARKNA":"台亞加油站-佳滿站（台塑）","LANDMARKAD":"1001127","ADDRESS":"台南市仁德區民安路一段30號","TEL":"(06)289-7191","COUNTYNAME":"台南市","TOWNNAME":"仁德區","MARKTYPE":"994","Class":"4"}},{"type":"Feature","id":11459,"geometry":{"type":"Point","coordinates":[120.248062137765,22.973101052240398]},"properties":{"OBJECTID":11459,"LANDMARKID":"1001100001127","LANDMARKCO":"405","LANDMARKNA":"福懋加油站-文德站(台塑)","LANDMARKAD":"1001127","ADDRESS":"台南市仁德區文德路17號","TEL":"06-2703918","COUNTYNAME":"台南市","TOWNNAME":"仁德區","MARKTYPE":"994","Class":"4"}},{"type":"Feature","id":11460,"geometry":{"type":"Point","coordinates":[120.25213030418723,22.908365358544625]},"properties":{"OBJECTID":11460,"LANDMARKID":"1001100000295","LANDMARKCO":"107","LANDMARKNA":"台南市警察局依仁派出所","LANDMARKAD":"1001127","ADDRESS":"台南市仁德區中洲村中洲12號","TEL":"06-2661245","COUNTYNAME":"台南市","TOWNNAME":"仁德區","MARKTYPE":"991","Class":"1"}},{"type":"Feature","id":11461,"geometry":{"type":"Point","coordinates":[120.22086048639443,22.943294517153728]},"properties":{"OBJECTID":11461,"LANDMARKID":"1001100000296","LANDMARKCO":"107","LANDMARKNA":"台南市警察局文賢派出所","LANDMARKAD":"1001127","ADDRESS":"台南市仁德區成功村二仁路二段600號","TEL":"06-2661788","COUNTYNAME":"台南市","TOWNNAME":"仁德區","MARKTYPE":"991","Class":"1"}},{"type":"Feature","id":11462,"geometry":{"type":"Point","coordinates":[120.25077743225349,22.971973150137462]},"properties":{"OBJECTID":11462,"LANDMARKID":"1001100000297","LANDMARKCO":"107","LANDMARKNA":"台南市警察局仁德分駐所","LANDMARKAD":"1001127","ADDRESS":"台南市仁德區仁德村中山路624號","TEL":"06-2702664","COUNTYNAME":"台南市","TOWNNAME":"仁德區","MARKTYPE":"991","Class":"1"}},{"type":"Feature","id":11463,"geometry":{"type":"Point","coordinates":[120.25144797062836,22.972783124279097]},"properties":{"OBJECTID":11463,"LANDMARKID":"1001100000031","LANDMARKCO":"103","LANDMARKNA":"台南市仁德區衛生所","LANDMARKAD":"1001127","ADDRESS":"台南市仁德區仁德村中山路606巷2號","TEL":"06-2704153","COUNTYNAME":"台南市","TOWNNAME":"仁德區","MARKTYPE":"991","Class":"1"}},{"type":"Feature","id":11464,"geometry":{"type":"Point","coordinates":[120.25121336626238,22.972239081110821]},"properties":{"OBJECTID":11464,"LANDMARKID":"1001100000111","LANDMARKCO":"106","LANDMARKNA":"台南市仁德區戶政事務所","LANDMARKAD":"1001127","ADDRESS":"台南市仁德區中山路606巷3號","TEL":"06-2704430","COUNTYNAME":"台南市","TOWNNAME":"仁德區","MARKTYPE":"991","Class":"1"}},{"type":"Feature","id":11465,"geometry":{"type":"Point","coordinates":[120.25137635565623,22.950549990550243]},"properties":{"OBJECTID":11465,"LANDMARKID":"1001100000293","LANDMARKCO":"107","LANDMARKNA":"台南市警察局德南派出所","LANDMARKAD":"1001127","ADDRESS":"台南市仁德區後壁村中正路二段271號","TEL":"06-2791341","COUNTYNAME":"台南市","TOWNNAME":"仁德區","MARKTYPE":"991","Class":"1"}},{"type":"Feature","id":11466,"geometry":{"type":"Point","coordinates":[120.25778560945837,22.968362397585011]},"properties":{"OBJECTID":11466,"LANDMARKID":"1001100000294","LANDMARKCO":"107","LANDMARKNA":"台南市消防局仁德消防分隊","LANDMARKAD":"1001127","ADDRESS":"台南市仁德區仁義路432號","TEL":"06-2702827","COUNTYNAME":"台南市","TOWNNAME":"仁德區","MARKTYPE":"991","Class":"1"}},{"type":"Feature","id":11467,"geometry":{"type":"Point","coordinates":[120.25168710216018,22.972455770519552]},"properties":{"OBJECTID":11467,"LANDMARKID":"1001100000308","LANDMARKCO":"108","LANDMARKNA":"台南市仁德區公所","LANDMARKAD":"1001127","ADDRESS":"台南市仁德區仁德村中正路三段5號","TEL":"06-2704211","COUNTYNAME":"台南市","TOWNNAME":"仁德區","MARKTYPE":"991","Class":"1"}},{"type":"Feature","id":11468,"geometry":{"type":"Point","coordinates":[120.25168710216018,22.972455770519552]},"properties":{"OBJECTID":11468,"LANDMARKID":"1001100000032","LANDMARKCO":"103","LANDMARKNA":"台南市仁德區鄉民代表會","LANDMARKAD":"1001127","ADDRESS":"台南市仁德區中正路三段5號2樓","TEL":"06-2490428","COUNTYNAME":"台南市","TOWNNAME":"仁德區","MARKTYPE":"991","Class":"1"}},{"type":"Feature","id":11469,"geometry":{"type":"Point","coordinates":[120.2625280478304,22.991434886885113]},"properties":{"OBJECTID":11469,"LANDMARKID":"1001100000298","LANDMARKCO":"107","LANDMARKNA":"台南市警察局太廟派出所","LANDMARKAD":"1001127","ADDRESS":"台南市仁德區太子村太子路164號","TEL":"06-2726472","COUNTYNAME":"台南市","TOWNNAME":"仁德區","MARKTYPE":"991","Class":"1"}},{"type":"Feature","id":11470,"geometry":{"type":"Point","coordinates":[120.24481845123162,22.928730965772516]},"properties":{"OBJECTID":11470,"LANDMARKID":"1001100000299","LANDMARKCO":"107","LANDMARKNA":"台南市消防局文賢消防分隊","LANDMARKAD":"1001127","ADDRESS":"台南市仁德區三甲村58之9號","TEL":"06-2666302","COUNTYNAME":"台南市","TOWNNAME":"仁德區","MARKTYPE":"991","Class":"1"}},{"type":"Feature","id":11471,"geometry":{"type":"Point","coordinates":[120.22217876863947,22.923948744752042]},"properties":{"OBJECTID":11471,"LANDMARKID":"1001100000665","LANDMARKCO":"205","LANDMARKNA":"台南家具產業博物館","LANDMARKAD":"1001127","ADDRESS":"台南市仁德區二仁路一段315巷50號","TEL":"06-2661193","COUNTYNAME":"台南市","TOWNNAME":"仁德區","MARKTYPE":"992","Class":"2"}},{"type":"Feature","id":11472,"geometry":{"type":"Point","coordinates":[120.2438081493317,22.926459395499084]},"properties":{"OBJECTID":11472,"LANDMARKID":"1001100000666","LANDMARKCO":"205","LANDMARKNA":"奇美博物館","LANDMARKAD":"1001127","ADDRESS":"台南市仁德區三甲村59之1號","TEL":" ","COUNTYNAME":"台南市","TOWNNAME":"仁德區","MARKTYPE":"992","Class":"2"}},{"type":"Feature","id":11473,"geometry":{"type":"Point","coordinates":[120.25148736620329,22.972131086670579]},"properties":{"OBJECTID":11473,"LANDMARKID":"1001100000626","LANDMARKCO":"204","LANDMARKNA":"台南市立圖書館仁德分館","LANDMARKAD":"1001127","ADDRESS":"台南市仁德區中正路三段5號","TEL":" ","COUNTYNAME":"台南市","TOWNNAME":"仁德區","MARKTYPE":"992","Class":"2"}},{"type":"Feature","id":11474,"geometry":{"type":"Point","coordinates":[120.24787293504845,22.956469660323883]},"properties":{"OBJECTID":11474,"LANDMARKID":"1001100000625","LANDMARKCO":"203","LANDMARKNA":"縣立仁德國中","LANDMARKAD":"1001127","ADDRESS":"台南市仁德區民安路一段363號","TEL":"06-2677697","COUNTYNAME":"台南市","TOWNNAME":"仁德區","MARKTYPE":"992","Class":"2"}},{"type":"Feature","id":11475,"geometry":{"type":"Point","coordinates":[120.24476200006455,22.960516943698227]},"properties":{"OBJECTID":11475,"LANDMARKID":"1001100000346","LANDMARKCO":"201","LANDMARKNA":"中華醫事科技大學","LANDMARKAD":"1001127","ADDRESS":"台南市仁德區文華一街89號","TEL":"06-2674567","COUNTYNAME":"台南市","TOWNNAME":"仁德區","MARKTYPE":"992","Class":"2"}},{"type":"Feature","id":11476,"geometry":{"type":"Point","coordinates":[120.23509969343138,22.922369978511551]},"properties":{"OBJECTID":11476,"LANDMARKID":"1001100000617","LANDMARKCO":"203","LANDMARKNA":"縣立文賢國小","LANDMARKAD":"1001127","ADDRESS":" ","TEL":" ","COUNTYNAME":"台南市","TOWNNAME":"仁德區","MARKTYPE":"992","Class":"2"}},{"type":"Feature","id":11477,"geometry":{"type":"Point","coordinates":[120.23509053555777,22.921354032708756]},"properties":{"OBJECTID":11477,"LANDMARKID":"1001100000618","LANDMARKCO":"203","LANDMARKNA":"縣立文賢國中","LANDMARKAD":"1001127","ADDRESS":"台南市仁德區保安村中正路一段185號","TEL":"06-2662392","COUNTYNAME":"台南市","TOWNNAME":"仁德區","MARKTYPE":"992","Class":"2"}},{"type":"Feature","id":11478,"geometry":{"type":"Point","coordinates":[120.24413436231266,22.976311290499932]},"properties":{"OBJECTID":11478,"LANDMARKID":"1001100000619","LANDMARKCO":"203","LANDMARKNA":"私立城光國中","LANDMARKAD":"1001127","ADDRESS":"台南市仁德區文華路593號","TEL":"06-2703301","COUNTYNAME":"台南市","TOWNNAME":"仁德區","MARKTYPE":"992","Class":"2"}},{"type":"Feature","id":11479,"geometry":{"type":"Point","coordinates":[120.21715770669935,22.918842757275126]},"properties":{"OBJECTID":11479,"LANDMARKID":"1001100000620","LANDMARKCO":"203","LANDMARKNA":"縣立大甲國小","LANDMARKAD":"1001127","ADDRESS":"台南市仁德區中正西路360巷30號","TEL":"06-2662492","COUNTYNAME":"台南市","TOWNNAME":"仁德區","MARKTYPE":"992","Class":"2"}},{"type":"Feature","id":11480,"geometry":{"type":"Point","coordinates":[120.23030966419971,22.945305509200821]},"properties":{"OBJECTID":11480,"LANDMARKID":"1001100000621","LANDMARKCO":"203","LANDMARKNA":"縣立虎山國小","LANDMARKAD":"1001127","ADDRESS":"台南市仁德區成功村虎山一街100號","TEL":"06-2661490","COUNTYNAME":"台南市","TOWNNAME":"仁德區","MARKTYPE":"992","Class":"2"}},{"type":"Feature","id":11481,"geometry":{"type":"Point","coordinates":[120.2508735572806,22.948730187520887]},"properties":{"OBJECTID":11481,"LANDMARKID":"1001100000622","LANDMARKCO":"203","LANDMARKNA":"縣立德南國小","LANDMARKAD":"1001127","ADDRESS":"台南市仁德區後壁村中正路二段209號","TEL":"06-2794772","COUNTYNAME":"台南市","TOWNNAME":"仁德區","MARKTYPE":"992","Class":"2"}},{"type":"Feature","id":11482,"geometry":{"type":"Point","coordinates":[120.25405507962066,22.962224704037226]},"properties":{"OBJECTID":11482,"LANDMARKID":"1001100000623","LANDMARKCO":"203","LANDMARKNA":"縣立仁德國小","LANDMARKAD":"1001127","ADDRESS":"台南市仁德區中正路二段806號","TEL":"06-2794570","COUNTYNAME":"台南市","TOWNNAME":"仁德區","MARKTYPE":"992","Class":"2"}},{"type":"Feature","id":11483,"geometry":{"type":"Point","coordinates":[120.26028116297209,22.990341005149713]},"properties":{"OBJECTID":11483,"LANDMARKID":"1001100000624","LANDMARKCO":"203","LANDMARKNA":"縣立長興國小","LANDMARKAD":"1001127","ADDRESS":"台南市仁德區土庫路6號","TEL":"06-2723986","COUNTYNAME":"台南市","TOWNNAME":"仁德區","MARKTYPE":"992","Class":"2"}},{"type":"Feature","id":11484,"geometry":{"type":"Point","coordinates":[120.22575015877096,22.920617637456296]},"properties":{"OBJECTID":11484,"LANDMARKID":"1001100000347","LANDMARKCO":"201","LANDMARKNA":"嘉南藥理科技大學","LANDMARKAD":"1001127","ADDRESS":"台南市仁德區二仁路一段60號","TEL":"06-2664911","COUNTYNAME":"台南市","TOWNNAME":"仁德區","MARKTYPE":"992","Class":"2"}},{"type":"Feature","id":11485,"geometry":{"type":"Point","coordinates":[120.22197051729826,22.960688588197211]},"properties":{"OBJECTID":11485,"LANDMARKID":"1001100000615","LANDMARKCO":"203","LANDMARKNA":"縣立仁和國小","LANDMARKAD":"1001127","ADDRESS":"台南市仁德區仁愛村453號","TEL":"06-2681927","COUNTYNAME":"台南市","TOWNNAME":"仁德區","MARKTYPE":"992","Class":"2"}},{"type":"Feature","id":11486,"geometry":{"type":"Point","coordinates":[120.26111369676389,22.912822257325242]},"properties":{"OBJECTID":11486,"LANDMARKID":"1001100000616","LANDMARKCO":"203","LANDMARKNA":"縣立依仁國小","LANDMARKAD":"1001127","ADDRESS":"台南市仁德區中洲村港墘3號","TEL":"06-2662108#81","COUNTYNAME":"台南市","TOWNNAME":"仁德區","MARKTYPE":"992","Class":"2"}},{"type":"Feature","id":11487,"geometry":{"type":"Point","coordinates":[120.26494289298579,22.906795254583312]},"properties":{"OBJECTID":11487,"LANDMARKID":"1001100000751","LANDMARKCO":"308","LANDMARKNA":"仁德服務區","LANDMARKAD":"1001127","ADDRESS":" ","TEL":" ","COUNTYNAME":"台南市","TOWNNAME":"仁德區","MARKTYPE":"993","Class":"308"}},{"type":"Feature","id":11488,"geometry":{"type":"Point","coordinates":[120.24919406017487,22.946250336151198]},"properties":{"OBJECTID":11488,"LANDMARKID":"1001100000752","LANDMARKCO":"308","LANDMARKNA":"國1-仁德系統交流道-北上","LANDMARKAD":"1001127","ADDRESS":"台南市仁德區","TEL":" ","COUNTYNAME":"台南市","TOWNNAME":"仁德區","MARKTYPE":"993","Class":"308"}},{"type":"Feature","id":11489,"geometry":{"type":"Point","coordinates":[120.24976239945838,22.968449874872942]},"properties":{"OBJECTID":11489,"LANDMARKID":"1001100000753","LANDMARKCO":"308","LANDMARKNA":"國1-台南交流道-南下","LANDMARKAD":"1001127","ADDRESS":"台南市仁德區","TEL":" ","COUNTYNAME":"台南市","TOWNNAME":"仁德區","MARKTYPE":"993","Class":"308"}},{"type":"Feature","id":11490,"geometry":{"type":"Point","coordinates":[120.25002053371895,22.940543114183953]},"properties":{"OBJECTID":11490,"LANDMARKID":"1001100000754","LANDMARKCO":"308","LANDMARKNA":"國1-仁德系統交流道-南下","LANDMARKAD":"1001127","ADDRESS":"台南市仁德區","TEL":" ","COUNTYNAME":"台南市","TOWNNAME":"仁德區","MARKTYPE":"993","Class":"308"}},{"type":"Feature","id":11491,"geometry":{"type":"Point","coordinates":[120.24921032328487,22.974560205748137]},"properties":{"OBJECTID":11491,"LANDMARKID":"1001100000755","LANDMARKCO":"308","LANDMARKNA":"國1-台南交流道-北上","LANDMARKAD":"1001127","ADDRESS":"台南市仁德區","TEL":" ","COUNTYNAME":"台南市","TOWNNAME":"仁德區","MARKTYPE":"993","Class":"308"}},{"type":"Feature","id":11492,"geometry":{"type":"Point","coordinates":[120.22361509176012,22.931016711983791]},"properties":{"OBJECTID":11492,"LANDMARKID":"1001100000756","LANDMARKCO":"308","LANDMARKNA":"台86-台南交流道-東行","LANDMARKAD":"1001127","ADDRESS":" ","TEL":" ","COUNTYNAME":"台南市","TOWNNAME":"仁德區","MARKTYPE":"993","Class":"308"}},{"type":"Feature","id":11493,"geometry":{"type":"Point","coordinates":[120.25437279840943,22.940594357085207]},"properties":{"OBJECTID":11493,"LANDMARKID":"1001100000757","LANDMARKCO":"308","LANDMARKNA":"台86-仁德系統交流道-東行","LANDMARKAD":"1001127","ADDRESS":" ","TEL":" ","COUNTYNAME":"台南市","TOWNNAME":"仁德區","MARKTYPE":"993","Class":"308"}},{"type":"Feature","id":11494,"geometry":{"type":"Point","coordinates":[120.24493579301101,22.944016035556299]},"properties":{"OBJECTID":11494,"LANDMARKID":"1001100000758","LANDMARKCO":"308","LANDMARKNA":"台86-仁德系統交流道-西行","LANDMARKAD":"1001127","ADDRESS":" ","TEL":" ","COUNTYNAME":"台南市","TOWNNAME":"仁德區","MARKTYPE":"993","Class":"308"}},{"type":"Feature","id":11495,"geometry":{"type":"Point","coordinates":[120.25901569155512,22.936487228403735]},"properties":{"OBJECTID":11495,"LANDMARKID":"1001100000759","LANDMARKCO":"308","LANDMARKNA":"台86-上崙交流道-西行","LANDMARKAD":"1001127","ADDRESS":" ","TEL":" ","COUNTYNAME":"台南市","TOWNNAME":"仁德區","MARKTYPE":"993","Class":"308"}},{"type":"Feature","id":11496,"geometry":{"type":"Point","coordinates":[120.26367507616902,22.93296833762712]},"properties":{"OBJECTID":11496,"LANDMARKID":"1001100000760","LANDMARKCO":"308","LANDMARKNA":"台86-上崙交流道-東行","LANDMARKAD":"1001127","ADDRESS":" ","TEL":" ","COUNTYNAME":"台南市","TOWNNAME":"仁德區","MARKTYPE":"993","Class":"308"}},{"type":"Feature","id":11497,"geometry":{"type":"Point","coordinates":[120.24690302504958,22.952102446183975]},"properties":{"OBJECTID":11497,"LANDMARKID":"1001100000735","LANDMARKCO":"303","LANDMARKNA":"大型車停車場","LANDMARKAD":"1001127","ADDRESS":"台南市仁德區","TEL":" ","COUNTYNAME":"台南市","TOWNNAME":"仁德區","MARKTYPE":"993","Class":"303"}},{"type":"Feature","id":11498,"geometry":{"type":"Point","coordinates":[120.25407368100799,22.972511523178998]},"properties":{"OBJECTID":11498,"LANDMARKID":"1001100000736","LANDMARKCO":"303","LANDMARKNA":"仁德立體停車場","LANDMARKAD":"1001127","ADDRESS":"台南市仁德區正義一路41號","TEL":" ","COUNTYNAME":"台南市","TOWNNAME":"仁德區","MARKTYPE":"993","Class":"303"}},{"type":"Feature","id":11499,"geometry":{"type":"Point","coordinates":[120.25266916660568,22.903977917281487]},"properties":{"OBJECTID":11499,"LANDMARKID":"1001100000680","LANDMARKCO":"301","LANDMARKNA":"中洲火車站","LANDMARKAD":"1001127","ADDRESS":"台南市仁德區中洲路298之1號","TEL":" ","COUNTYNAME":"台南市","TOWNNAME":"仁德區","MARKTYPE":"993","Class":"301"}},{"type":"Feature","id":11500,"geometry":{"type":"Point","coordinates":[120.23160977225167,22.932969609295551]},"properties":{"OBJECTID":11500,"LANDMARKID":"1001100000681","LANDMARKCO":"301","LANDMARKNA":"保安車站","LANDMARKAD":"1001127","ADDRESS":"台南市仁德區文賢路一段529巷10號","TEL":" ","COUNTYNAME":"台南市","TOWNNAME":"仁德區","MARKTYPE":"993","Class":"301"}},{"type":"Feature","id":11501,"geometry":{"type":"Point","coordinates":[120.25213780298508,22.970186675903797]},"properties":{"OBJECTID":11501,"LANDMARKID":"1001100000847","LANDMARKCO":"402","LANDMARKNA":"中華電信-仁德服務中心","LANDMARKAD":"1001127","ADDRESS":"台南市仁德區中正路二段1136號","TEL":"(06)2442267~9","COUNTYNAME":"台南市","TOWNNAME":"仁德區","MARKTYPE":"994","Class":"4"}},{"type":"Feature","id":11502,"geometry":{"type":"Point","coordinates":[120.25520658662866,22.971367382928307]},"properties":{"OBJECTID":11502,"LANDMARKID":"1001100000848","LANDMARKCO":"402","LANDMARKNA":"威寶電信-仁德中山特約服務中心","LANDMARKAD":"1001127","ADDRESS":"台南市仁德區中山路450號","TEL":"06-2498438","COUNTYNAME":"台南市","TOWNNAME":"仁德區","MARKTYPE":"994","Class":"4"}},{"type":"Feature","id":11503,"geometry":{"type":"Point","coordinates":[120.22507684783704,22.921076139539295]},"properties":{"OBJECTID":11503,"LANDMARKID":"1001100001403","LANDMARKCO":"603","LANDMARKNA":"陸銘旅社","LANDMARKAD":"1001127","ADDRESS":"台南市仁德區二仁路一段64號","TEL":"06-2661586","COUNTYNAME":"台南市","TOWNNAME":"仁德區","MARKTYPE":"996","Class":"6"}},{"type":"Feature","id":11504,"geometry":{"type":"Point","coordinates":[120.21915602394084,22.949711955590526]},"properties":{"OBJECTID":11504,"LANDMARKID":"1001100001404","LANDMARKCO":"603","LANDMARKNA":"大林旅社","LANDMARKAD":"1001127","ADDRESS":"台南市仁德區仁愛村仁愛1185號","TEL":"06-2605001","COUNTYNAME":"台南市","TOWNNAME":"仁德區","MARKTYPE":"996","Class":"6"}},{"type":"Feature","id":11505,"geometry":{"type":"Point","coordinates":[120.21694257798698,22.959496895558381]},"properties":{"OBJECTID":11505,"LANDMARKID":"1001100001405","LANDMARKCO":"603","LANDMARKNA":"仁愛旅社","LANDMARKAD":"1001127","ADDRESS":"台南市仁德區仁愛村仁愛548號","TEL":"06-2680240","COUNTYNAME":"台南市","TOWNNAME":"仁德區","MARKTYPE":"996","Class":"6"}},{"type":"Feature","id":11506,"geometry":{"type":"Point","coordinates":[120.24142890880113,22.973406826935594]},"properties":{"OBJECTID":11506,"LANDMARKID":"1001100001406","LANDMARKCO":"603","LANDMARKNA":"儷晶汽車旅館","LANDMARKAD":"1001127","ADDRESS":"台南市仁德區仁德村文心路128號","TEL":"06-2791111","COUNTYNAME":"台南市","TOWNNAME":"仁德區","MARKTYPE":"996","Class":"6"}},{"type":"Feature","id":11507,"geometry":{"type":"Point","coordinates":[120.23869966895703,22.973276625652886]},"properties":{"OBJECTID":11507,"LANDMARKID":"1001100001407","LANDMARKCO":"603","LANDMARKNA":"假日汽車旅館","LANDMARKAD":"1001127","ADDRESS":"台南市仁德區仁德村文忠路69號","TEL":"06-2798555","COUNTYNAME":"台南市","TOWNNAME":"仁德區","MARKTYPE":"996","Class":"6"}},{"type":"Feature","id":11508,"geometry":{"type":"Point","coordinates":[120.24424913221516,22.975515447778847]},"properties":{"OBJECTID":11508,"LANDMARKID":"1001100001408","LANDMARKCO":"603","LANDMARKNA":"戀愛汽車旅館","LANDMARKAD":"1001127","ADDRESS":"台南市仁德區仁德村文華路585號","TEL":"06-2705566","COUNTYNAME":"台南市","TOWNNAME":"仁德區","MARKTYPE":"996","Class":"6"}},{"type":"Feature","id":11509,"geometry":{"type":"Point","coordinates":[120.24780134870473,22.975306028189998]},"properties":{"OBJECTID":11509,"LANDMARKID":"1001100001409","LANDMARKCO":"603","LANDMARKNA":"夏卡爾汽車旅館","LANDMARKAD":"1001127","ADDRESS":"台南市仁德區文山路21號","TEL":"06-2798666","COUNTYNAME":"台南市","TOWNNAME":"仁德區","MARKTYPE":"996","Class":"6"}},{"type":"Feature","id":11510,"geometry":{"type":"Point","coordinates":[120.25360027060461,22.971993437584914]},"properties":{"OBJECTID":11510,"LANDMARKID":"1001100001410","LANDMARKCO":"603","LANDMARKNA":"永樂天大旅社","LANDMARKAD":"1001127","ADDRESS":"台南市仁德區正義一街58號","TEL":"06-2704271","COUNTYNAME":"台南市","TOWNNAME":"仁德區","MARKTYPE":"996","Class":"6"}},{"type":"Feature","id":11511,"geometry":{"type":"Point","coordinates":[120.21790139223646,22.918268782106605]},"properties":{"OBJECTID":11511,"LANDMARKID":"1001100001433","LANDMARKCO":"605","LANDMARKNA":"觀音寺","LANDMARKAD":"1001127","ADDRESS":"台南市仁德區","TEL":" ","COUNTYNAME":"台南市","TOWNNAME":"仁德區","MARKTYPE":"996","Class":"6"}},{"type":"Feature","id":11512,"geometry":{"type":"Point","coordinates":[120.25468903349059,22.977029582339632]},"properties":{"OBJECTID":11512,"LANDMARKID":"1001100001434","LANDMARKCO":"605","LANDMARKNA":"忠義宮","LANDMARKAD":"1001127","ADDRESS":"台南市仁德區","TEL":" ","COUNTYNAME":"台南市","TOWNNAME":"仁德區","MARKTYPE":"996","Class":"6"}},{"type":"Feature","id":11513,"geometry":{"type":"Point","coordinates":[120.26423536726891,22.99369395778573]},"properties":{"OBJECTID":11513,"LANDMARKID":"1001100001435","LANDMARKCO":"605","LANDMARKNA":"清安宮","LANDMARKAD":"1001127","ADDRESS":"台南市仁德區","TEL":" ","COUNTYNAME":"台南市","TOWNNAME":"仁德區","MARKTYPE":"996","Class":"6"}},{"type":"Feature","id":11514,"geometry":{"type":"Point","coordinates":[120.27049482064258,22.991965566844666]},"properties":{"OBJECTID":11514,"LANDMARKID":"1001100001436","LANDMARKCO":"605","LANDMARKNA":"岳王廟","LANDMARKAD":"1001127","ADDRESS":"台南市仁德區太子路64號","TEL":" ","COUNTYNAME":"台南市","TOWNNAME":"仁德區","MARKTYPE":"996","Class":"6"}},{"type":"Feature","id":11515,"geometry":{"type":"Point","coordinates":[120.21886199114857,23.053784387573405]},"properties":{"OBJECTID":11515,"LANDMARKID":"1002100000382","LANDMARKCO":"405","LANDMARKNA":"台灣優力加油站-安和路站(中油)","LANDMARKAD":"1002106","ADDRESS":"台南市安南區安和路四段160號","TEL":"06-3564392","COUNTYNAME":"台南市","TOWNNAME":"安南區","MARKTYPE":"994","Class":"4"}},{"type":"Feature","id":11516,"geometry":{"type":"Point","coordinates":[120.23665221332257,23.054139610100389]},"properties":{"OBJECTID":11516,"LANDMARKID":"1002100000383","LANDMARKCO":"405","LANDMARKNA":"中油加油站-加州站","LANDMARKAD":"1002106","ADDRESS":"台南市安南區長和街一段95號","TEL":"06-3563657","COUNTYNAME":"台南市","TOWNNAME":"安南區","MARKTYPE":"994","Class":"4"}},{"type":"Feature","id":11517,"geometry":{"type":"Point","coordinates":[120.19577760951063,23.043134955041126]},"properties":{"OBJECTID":11517,"LANDMARKID":"1002100000384","LANDMARKCO":"405","LANDMARKNA":"中油加油站-安順站(中油直營)","LANDMARKAD":"1002106","ADDRESS":"台南市安南區安中路一段650號","TEL":"06-2569187","COUNTYNAME":"台南市","TOWNNAME":"安南區","MARKTYPE":"994","Class":"4"}},{"type":"Feature","id":11518,"geometry":{"type":"Point","coordinates":[120.20272215988363,23.036573626067874]},"properties":{"OBJECTID":11518,"LANDMARKID":"1002100000385","LANDMARKCO":"405","LANDMARKNA":"中油加油站-北安站","LANDMARKAD":"1002106","ADDRESS":"台南市安南區北安路二段363號","TEL":"06-2471796","COUNTYNAME":"台南市","TOWNNAME":"安南區","MARKTYPE":"994","Class":"4"}},{"type":"Feature","id":11519,"geometry":{"type":"Point","coordinates":[120.13992890861491,23.054319272207881]},"properties":{"OBJECTID":11519,"LANDMARKID":"1002100000386","LANDMARKCO":"405","LANDMARKNA":"台灣優力加油站-大成站(中油)","LANDMARKAD":"1002106","ADDRESS":"台南市安南區安明路三段９９０號","TEL":"06-2574175","COUNTYNAME":"台南市","TOWNNAME":"安南區","MARKTYPE":"994","Class":"4"}},{"type":"Feature","id":11520,"geometry":{"type":"Point","coordinates":[120.21468805427638,23.069799779459082]},"properties":{"OBJECTID":11520,"LANDMARKID":"1002100000387","LANDMARKCO":"405","LANDMARKNA":"統一速邁樂加油站-北安一站加油站(中油)","LANDMARKAD":"1002106","ADDRESS":"台南市北安路四段665號","TEL":" ","COUNTYNAME":"台南市","TOWNNAME":"安南區","MARKTYPE":"994","Class":"4"}},{"type":"Feature","id":11521,"geometry":{"type":"Point","coordinates":[120.16052825301509,23.053875464040139]},"properties":{"OBJECTID":11521,"LANDMARKID":"1002100000388","LANDMARKCO":"405","LANDMARKNA":"中油加油站-安中路站(中油直營)","LANDMARKAD":"1002106","ADDRESS":"台南市安南區安中路四段446號","TEL":"06-2569825","COUNTYNAME":"台南市","TOWNNAME":"安南區","MARKTYPE":"994","Class":"4"}},{"type":"Feature","id":11522,"geometry":{"type":"Point","coordinates":[120.18985058229399,23.054074332778029]},"properties":{"OBJECTID":11522,"LANDMARKID":"1002100000389","LANDMARKCO":"405","LANDMARKNA":"中油加油站-甲上站","LANDMARKAD":"1002106","ADDRESS":"台南市安南區安吉路一段759號","TEL":"06-2559445","COUNTYNAME":"台南市","TOWNNAME":"安南區","MARKTYPE":"994","Class":"4"}},{"type":"Feature","id":11523,"geometry":{"type":"Point","coordinates":[120.18990511012227,23.034291281627542]},"properties":{"OBJECTID":11523,"LANDMARKID":"1002100000390","LANDMARKCO":"405","LANDMARKNA":"中油加油站-民安海佃站","LANDMARKAD":"1002106","ADDRESS":"台南市安南區海佃路二段202號","TEL":"06-2554872","COUNTYNAME":"台南市","TOWNNAME":"安南區","MARKTYPE":"994","Class":"4"}},{"type":"Feature","id":11524,"geometry":{"type":"Point","coordinates":[120.21009065863642,23.047905695230131]},"properties":{"OBJECTID":11524,"LANDMARKID":"1002100000391","LANDMARKCO":"405","LANDMARKNA":"台灣優力加油站-長溪站(中油)","LANDMARKAD":"1002106","ADDRESS":"台南市安南區北安路三段727號","TEL":"06-2465853","COUNTYNAME":"台南市","TOWNNAME":"安南區","MARKTYPE":"994","Class":"4"}},{"type":"Feature","id":11525,"geometry":{"type":"Point","coordinates":[120.21620154327049,23.041632072674318]},"properties":{"OBJECTID":11525,"LANDMARKID":"1002100000392","LANDMARKCO":"405","LANDMARKNA":"中油加油站-安和站(中油直營)","LANDMARKAD":"1002106","ADDRESS":"台南市安南區安和路二段238號","TEL":"06-3553299","COUNTYNAME":"台南市","TOWNNAME":"安南區","MARKTYPE":"994","Class":"4"}},{"type":"Feature","id":11526,"geometry":{"type":"Point","coordinates":[120.19079130741765,23.026872456975344]},"properties":{"OBJECTID":11526,"LANDMARKID":"1002100000393","LANDMARKCO":"405","LANDMARKNA":"統一速邁樂加油站-海佃加油站(中油)","LANDMARKAD":"1002106","ADDRESS":"台南市海佃路一段339號","TEL":" ","COUNTYNAME":"台南市","TOWNNAME":"安南區","MARKTYPE":"994","Class":"4"}},{"type":"Feature","id":11527,"geometry":{"type":"Point","coordinates":[120.13553673655032,23.078097986055948]},"properties":{"OBJECTID":11527,"LANDMARKID":"1002100000394","LANDMARKCO":"405","LANDMARKNA":"中油加油站-土城站","LANDMARKAD":"1002106","ADDRESS":"台南市安南區安明路4段826號","TEL":"06-2571319","COUNTYNAME":"台南市","TOWNNAME":"安南區","MARKTYPE":"994","Class":"4"}},{"type":"Feature","id":11528,"geometry":{"type":"Point","coordinates":[120.13521447105818,23.079027934858292]},"properties":{"OBJECTID":11528,"LANDMARKID":"1002100000395","LANDMARKCO":"405","LANDMARKNA":"中油加油站-大銘昌站","LANDMARKAD":"1002106","ADDRESS":"台南市安南區安明路四段1253號","TEL":"06-2575788","COUNTYNAME":"台南市","TOWNNAME":"安南區","MARKTYPE":"994","Class":"4"}},{"type":"Feature","id":11529,"geometry":{"type":"Point","coordinates":[120.21846965173062,23.058024982021948]},"properties":{"OBJECTID":11529,"LANDMARKID":"1002100000396","LANDMARKCO":"405","LANDMARKNA":"中油加油站-和順站(中油直營)","LANDMARKAD":"1002106","ADDRESS":"台南市安南區安和路四段335號","TEL":"06-3559301","COUNTYNAME":"台南市","TOWNNAME":"安南區","MARKTYPE":"994","Class":"4"}},{"type":"Feature","id":11530,"geometry":{"type":"Point","coordinates":[120.19231722348512,23.020078355299454]},"properties":{"OBJECTID":11530,"LANDMARKID":"1002100000397","LANDMARKCO":"405","LANDMARKNA":"千越加油站-海佃站(中油)","LANDMARKAD":"1002106","ADDRESS":"台南市安南區海佃路一段5號","TEL":"06-2560999","COUNTYNAME":"台南市","TOWNNAME":"安南區","MARKTYPE":"994","Class":"4"}},{"type":"Feature","id":11531,"geometry":{"type":"Point","coordinates":[120.17630947551338,23.060050002207522]},"properties":{"OBJECTID":11531,"LANDMARKID":"1002100000398","LANDMARKCO":"405","LANDMARKNA":"中油加油站-嘉和站","LANDMARKAD":"1002106","ADDRESS":"台南市南區海佃路4段205號","TEL":"06-2561577","COUNTYNAME":"台南市","TOWNNAME":"安南區","MARKTYPE":"994","Class":"4"}},{"type":"Feature","id":11532,"geometry":{"type":"Point","coordinates":[120.19270040811449,23.076774320484667]},"properties":{"OBJECTID":11532,"LANDMARKID":"1002100000399","LANDMARKCO":"405","LANDMARKNA":"中油加油站-公學站","LANDMARKAD":"1002106","ADDRESS":"台南市安吉路三段567號","TEL":"06-2473585","COUNTYNAME":"台南市","TOWNNAME":"安南區","MARKTYPE":"994","Class":"4"}},{"type":"Feature","id":11533,"geometry":{"type":"Point","coordinates":[120.18849289149324,23.047298738370067]},"properties":{"OBJECTID":11533,"LANDMARKID":"1002100000400","LANDMARKCO":"405","LANDMARKNA":"中油加油站-轂豐站","LANDMARKAD":"1002106","ADDRESS":"台南市安南區安吉路一段465號","TEL":"06-2476828","COUNTYNAME":"台南市","TOWNNAME":"安南區","MARKTYPE":"994","Class":"4"}},{"type":"Feature","id":11534,"geometry":{"type":"Point","coordinates":[120.19143024593897,23.023602696597788]},"properties":{"OBJECTID":11534,"LANDMARKID":"1002100000326","LANDMARKCO":"402","LANDMARKNA":"My Phone台灣大哥大-台南海佃二直營服務中心","LANDMARKAD":"1002106","ADDRESS":"台南市安南區海佃路1段163號","TEL":" ","COUNTYNAME":"台南市","TOWNNAME":"安南區","MARKTYPE":"994","Class":"4"}},{"type":"Feature","id":11535,"geometry":{"type":"Point","coordinates":[120.17620119407324,23.048927970228739]},"properties":{"OBJECTID":11535,"LANDMARKID":"1002100000327","LANDMARKCO":"402","LANDMARKNA":"亞太行動寬頻電信-台南安中加盟服務中心","LANDMARKAD":"1002106","ADDRESS":"台南市安南區安中路3段314號","TEL":"06-2557123","COUNTYNAME":"台南市","TOWNNAME":"安南區","MARKTYPE":"994","Class":"4"}},{"type":"Feature","id":11536,"geometry":{"type":"Point","coordinates":[120.19139628217299,23.026203009128153]},"properties":{"OBJECTID":11536,"LANDMARKID":"1002100000328","LANDMARKCO":"402","LANDMARKNA":"亞太行動寬頻電信-台南海佃加盟服務中心","LANDMARKAD":"1002106","ADDRESS":"台南市安南區海佃路1段274號","TEL":"06-3580680","COUNTYNAME":"台南市","TOWNNAME":"安南區","MARKTYPE":"994","Class":"4"}},{"type":"Feature","id":11537,"geometry":{"type":"Point","coordinates":[120.21261358454196,23.032553509923449]},"properties":{"OBJECTID":11537,"LANDMARKID":"1002100000329","LANDMARKCO":"402","LANDMARKNA":"亞太行動寬頻電信-台南安和加盟服務中心","LANDMARKAD":"1002106","ADDRESS":"台南市安南區安和路1段316號","TEL":"06-2564556","COUNTYNAME":"台南市","TOWNNAME":"安南區","MARKTYPE":"994","Class":"4"}},{"type":"Feature","id":11538,"geometry":{"type":"Point","coordinates":[120.19456904092415,23.043391208625618]},"properties":{"OBJECTID":11538,"LANDMARKID":"1002100000325","LANDMARKCO":"401","LANDMARKNA":"台南市立醫院附設安南門診部","LANDMARKAD":"1002106","ADDRESS":"台南市安南區安中路一段745號","TEL":"06-2464438","COUNTYNAME":"台南市","TOWNNAME":"安南區","MARKTYPE":"994","Class":"4"}},{"type":"Feature","id":11539,"geometry":{"type":"Point","coordinates":[120.12576493437824,23.016476433569874]},"properties":{"OBJECTID":11539,"LANDMARKID":"1002100000557","LANDMARKCO":"507","LANDMARKNA":"四草砲台(鎮海城)","LANDMARKAD":"1002106","ADDRESS":"台南市安南區四草里顯草街一段381號","TEL":" ","COUNTYNAME":"台南市","TOWNNAME":"安南區","MARKTYPE":"995","Class":"5"}},{"type":"Feature","id":11540,"geometry":{"type":"Point","coordinates":[120.21814322929768,23.0654864424436]},"properties":{"OBJECTID":11540,"LANDMARKID":"1002100000535","LANDMARKCO":"408","LANDMARKNA":"郵局-台南和順郵局","LANDMARKAD":"1002106","ADDRESS":"台南市安南區安和路5段119號","TEL":"(06)3559-285","COUNTYNAME":"台南市","TOWNNAME":"安南區","MARKTYPE":"994","Class":"4"}},{"type":"Feature","id":11541,"geometry":{"type":"Point","coordinates":[120.21314112006517,23.034725999716482]},"properties":{"OBJECTID":11541,"LANDMARKID":"1002100000536","LANDMARKCO":"408","LANDMARKNA":"郵局-台南安順郵局","LANDMARKAD":"1002106","ADDRESS":"台南市安南區安和路1段430號","TEL":"(06)2555-030","COUNTYNAME":"台南市","TOWNNAME":"安南區","MARKTYPE":"994","Class":"4"}},{"type":"Feature","id":11542,"geometry":{"type":"Point","coordinates":[120.18124916764027,23.047858881906116]},"properties":{"OBJECTID":11542,"LANDMARKID":"1002100000537","LANDMARKCO":"408","LANDMARKNA":"郵局-台南安南郵局","LANDMARKAD":"1002106","ADDRESS":"台南市安南區安中路3段106號","TEL":"(06)2561-849","COUNTYNAME":"台南市","TOWNNAME":"安南區","MARKTYPE":"994","Class":"4"}},{"type":"Feature","id":11543,"geometry":{"type":"Point","coordinates":[120.19142889123191,23.022898347801231]},"properties":{"OBJECTID":11543,"LANDMARKID":"1002100000538","LANDMARKCO":"408","LANDMARKNA":"郵局-台南海佃郵局","LANDMARKAD":"1002106","ADDRESS":"台南市安南區國安街8號","TEL":"(06)2580-744","COUNTYNAME":"台南市","TOWNNAME":"安南區","MARKTYPE":"994","Class":"4"}},{"type":"Feature","id":11544,"geometry":{"type":"Point","coordinates":[120.12838592970245,23.064985850770583]},"properties":{"OBJECTID":11544,"LANDMARKID":"1002100000539","LANDMARKCO":"408","LANDMARKNA":"郵局-台南土城郵局","LANDMARKAD":"1002106","ADDRESS":"台南市安南區安中路6段712號","TEL":"(06)2571-208","COUNTYNAME":"台南市","TOWNNAME":"安南區","MARKTYPE":"994","Class":"4"}},{"type":"Feature","id":11545,"geometry":{"type":"Point","coordinates":[120.19744477955797,23.044444873325052]},"properties":{"OBJECTID":11545,"LANDMARKID":"1002100000540","LANDMARKCO":"408","LANDMARKNA":"郵局-台南原佃郵局","LANDMARKAD":"1002106","ADDRESS":"台南市安南區怡安路2段462號","TEL":"(06)2464-402","COUNTYNAME":"台南市","TOWNNAME":"安南區","MARKTYPE":"994","Class":"4"}},{"type":"Feature","id":11546,"geometry":{"type":"Point","coordinates":[120.1975322185847,23.042711783141126]},"properties":{"OBJECTID":11546,"LANDMARKID":"1002100000378","LANDMARKCO":"404","LANDMARKNA":"台灣省自來水安南服務所","LANDMARKAD":"1002106","ADDRESS":"台南市安南區安中路一段698巷20號","TEL":" ","COUNTYNAME":"台南市","TOWNNAME":"安南區","MARKTYPE":"994","Class":"4"}},{"type":"Feature","id":11547,"geometry":{"type":"Point","coordinates":[120.13551121540641,23.018985299616428]},"properties":{"OBJECTID":11547,"LANDMARKID":"1002100000480","LANDMARKCO":"406","LANDMARKNA":"四草休閒公園","LANDMARKAD":"1002106","ADDRESS":"台南市安南區","TEL":" ","COUNTYNAME":"台南市","TOWNNAME":"安南區","MARKTYPE":"994","Class":"4"}},{"type":"Feature","id":11548,"geometry":{"type":"Point","coordinates":[120.114504270731,23.059008397625281]},"properties":{"OBJECTID":11548,"LANDMARKID":"1002100000481","LANDMARKCO":"406","LANDMARKNA":"鄭成功紀念公園","LANDMARKAD":"1002106","ADDRESS":"至安中路六段左轉入城西街二段","TEL":" ","COUNTYNAME":"台南市","TOWNNAME":"安南區","MARKTYPE":"994","Class":"4"}},{"type":"Feature","id":11549,"geometry":{"type":"Point","coordinates":[120.19536951086324,23.041229915561505]},"properties":{"OBJECTID":11549,"LANDMARKID":"1002100000482","LANDMARKCO":"406","LANDMARKNA":"梅花公園","LANDMARKAD":"1002106","ADDRESS":"台南市安南區","TEL":" ","COUNTYNAME":"台南市","TOWNNAME":"安南區","MARKTYPE":"994","Class":"4"}},{"type":"Feature","id":11550,"geometry":{"type":"Point","coordinates":[120.19840468827682,23.042390226422018]},"properties":{"OBJECTID":11550,"LANDMARKID":"1002100000483","LANDMARKCO":"406","LANDMARKNA":"鳳凰公園","LANDMARKAD":"1002106","ADDRESS":"台南市安南區","TEL":" ","COUNTYNAME":"台南市","TOWNNAME":"安南區","MARKTYPE":"994","Class":"4"}},{"type":"Feature","id":11551,"geometry":{"type":"Point","coordinates":[120.1947537021898,23.078058914010239]},"properties":{"OBJECTID":11551,"LANDMARKID":"1002100000379","LANDMARKCO":"405","LANDMARKNA":"台亞加油站-安吉路站（台塑）","LANDMARKAD":"1002106","ADDRESS":"台南市安南區安吉路三段608號","TEL":"(06)246-4353","COUNTYNAME":"台南市","TOWNNAME":"安南區","MARKTYPE":"994","Class":"4"}},{"type":"Feature","id":11552,"geometry":{"type":"Point","coordinates":[120.19374724468494,23.045239747171198]},"properties":{"OBJECTID":11552,"LANDMARKID":"1002100000380","LANDMARKCO":"405","LANDMARKNA":"台亞加油站-安南站（台塑）","LANDMARKAD":"1002106","ADDRESS":"台南市安南區怡安路二段512號","TEL":"(06)246--3124","COUNTYNAME":"台南市","TOWNNAME":"安南區","MARKTYPE":"994","Class":"4"}},{"type":"Feature","id":11553,"geometry":{"type":"Point","coordinates":[120.18991808635235,23.052238068429563]},"properties":{"OBJECTID":11553,"LANDMARKID":"1002100000381","LANDMARKCO":"405","LANDMARKNA":"鯨世界加油站-安定站(台塑)","LANDMARKAD":"1002106","ADDRESS":"台南市安南區安吉路一段538號","TEL":" ","COUNTYNAME":"台南市","TOWNNAME":"安南區","MARKTYPE":"994","Class":"4"}},{"type":"Feature","id":11554,"geometry":{"type":"Point","coordinates":[120.19719700744525,23.066580125011651]},"properties":{"OBJECTID":11554,"LANDMARKID":"1002100000108","LANDMARKCO":"107","LANDMARKNA":"台南市警察局長安派出所","LANDMARKAD":"1002106","ADDRESS":"台南市安南區長溪路三段313號","TEL":"06-2569531","COUNTYNAME":"台南市","TOWNNAME":"安南區","MARKTYPE":"991","Class":"1"}},{"type":"Feature","id":11555,"geometry":{"type":"Point","coordinates":[120.17610150476256,23.050139195781405]},"properties":{"OBJECTID":11555,"LANDMARKID":"1002100000043","LANDMARKCO":"103","LANDMARKNA":"台南巿安南區衛生所","LANDMARKAD":"1002106","ADDRESS":"台南市安南區仁安路70號","TEL":"06-2567406","COUNTYNAME":"台南市","TOWNNAME":"安南區","MARKTYPE":"991","Class":"1"}},{"type":"Feature","id":11556,"geometry":{"type":"Point","coordinates":[120.1847861307468,23.047224189437735]},"properties":{"OBJECTID":11556,"LANDMARKID":"1002100000121","LANDMARKCO":"108","LANDMARKNA":"台南市安南區公所","LANDMARKAD":"1002106","ADDRESS":"台南市安南區安中路二段308號","TEL":"06-2567126","COUNTYNAME":"台南市","TOWNNAME":"安南區","MARKTYPE":"991","Class":"1"}},{"type":"Feature","id":11557,"geometry":{"type":"Point","coordinates":[120.17486083767791,23.049759331981054]},"properties":{"OBJECTID":11557,"LANDMARKID":"1002100000110","LANDMARKCO":"107","LANDMARKNA":"台南市警察局第三分局","LANDMARKAD":"1002106","ADDRESS":"台南市安南區安中路三段396號","TEL":"06-2567666","COUNTYNAME":"台南市","TOWNNAME":"安南區","MARKTYPE":"991","Class":"1"}},{"type":"Feature","id":11558,"geometry":{"type":"Point","coordinates":[120.19545843277795,23.043334853887487]},"properties":{"OBJECTID":11558,"LANDMARKID":"1002100000111","LANDMARKCO":"107","LANDMARKNA":"台南市警察局安中派出所","LANDMARKAD":"1002106","ADDRESS":"台南市安南區安中路一段788號","TEL":"06-2467808","COUNTYNAME":"台南市","TOWNNAME":"安南區","MARKTYPE":"991","Class":"1"}},{"type":"Feature","id":11559,"geometry":{"type":"Point","coordinates":[120.12982746727953,23.040038433557768]},"properties":{"OBJECTID":11559,"LANDMARKID":"1002100000112","LANDMARKCO":"107","LANDMARKNA":"台南市警察局顯宮派出所","LANDMARKAD":"1002106","ADDRESS":"臺南市安南區媽祖宮路50號","TEL":"06-2841320","COUNTYNAME":"台南市","TOWNNAME":"安南區","MARKTYPE":"991","Class":"1"}},{"type":"Feature","id":11560,"geometry":{"type":"Point","coordinates":[120.17374076622042,23.064437153727233]},"properties":{"OBJECTID":11560,"LANDMARKID":"1002100000113","LANDMARKCO":"107","LANDMARKNA":"台南市警察局安佃派出所","LANDMARKAD":"1002106","ADDRESS":"台南市安南區海佃路四段496號","TEL":"06-2567620","COUNTYNAME":"台南市","TOWNNAME":"安南區","MARKTYPE":"991","Class":"1"}},{"type":"Feature","id":11561,"geometry":{"type":"Point","coordinates":[120.12905125158177,23.062399343865387]},"properties":{"OBJECTID":11561,"LANDMARKID":"1002100000114","LANDMARKCO":"107","LANDMARKNA":"台南市警察局土城派出所","LANDMARKAD":"1002106","ADDRESS":"台南市安南區城西街一段40號","TEL":"06-2577403","COUNTYNAME":"台南市","TOWNNAME":"安南區","MARKTYPE":"991","Class":"1"}},{"type":"Feature","id":11562,"geometry":{"type":"Point","coordinates":[120.17486083767791,23.049759331981054]},"properties":{"OBJECTID":11562,"LANDMARKID":"1002100000115","LANDMARKCO":"107","LANDMARKNA":"台南市警察局安南派出所","LANDMARKAD":"1002106","ADDRESS":"台南市安南區安中路三段396號","TEL":"06-2567910","COUNTYNAME":"台南市","TOWNNAME":"安南區","MARKTYPE":"991","Class":"1"}},{"type":"Feature","id":11563,"geometry":{"type":"Point","coordinates":[120.19029720529025,23.02862088184655]},"properties":{"OBJECTID":11563,"LANDMARKID":"1002100000116","LANDMARKCO":"107","LANDMARKNA":"台南市警察局海南派出所","LANDMARKAD":"1002106","ADDRESS":"台南市安南區海佃路一段419號","TEL":"06-2588946","COUNTYNAME":"台南市","TOWNNAME":"安南區","MARKTYPE":"991","Class":"1"}},{"type":"Feature","id":11564,"geometry":{"type":"Point","coordinates":[120.21271077504207,23.030840997092341]},"properties":{"OBJECTID":11564,"LANDMARKID":"1002100000117","LANDMARKCO":"107","LANDMARKNA":"台南市警察局安順派出所","LANDMARKAD":"1002106","ADDRESS":"台南市安南區安和路一段205號","TEL":"06-2562405","COUNTYNAME":"台南市","TOWNNAME":"安南區","MARKTYPE":"991","Class":"1"}},{"type":"Feature","id":11565,"geometry":{"type":"Point","coordinates":[120.21849086599026,23.062530267866642]},"properties":{"OBJECTID":11565,"LANDMARKID":"1002100000118","LANDMARKCO":"107","LANDMARKNA":"台南市警察局和順派出所","LANDMARKAD":"1002106","ADDRESS":"台南市安南區安和路四段569號","TEL":"06-3554134","COUNTYNAME":"台南市","TOWNNAME":"安南區","MARKTYPE":"991","Class":"1"}},{"type":"Feature","id":11566,"geometry":{"type":"Point","coordinates":[120.17486083767791,23.049759331981054]},"properties":{"OBJECTID":11566,"LANDMARKID":"1002100000119","LANDMARKCO":"107","LANDMARKNA":"台南市消防局安南消防分隊","LANDMARKAD":"1002106","ADDRESS":"台南市安南區安中路三段396號","TEL":"06-2567348","COUNTYNAME":"台南市","TOWNNAME":"安南區","MARKTYPE":"991","Class":"1"}},{"type":"Feature","id":11567,"geometry":{"type":"Point","coordinates":[120.21816296605787,23.044417214420168]},"properties":{"OBJECTID":11567,"LANDMARKID":"1002100000120","LANDMARKCO":"107","LANDMARKNA":"台南市消防局安和消防分隊","LANDMARKAD":"1002106","ADDRESS":"台南市安南區安和路三段54巷16號","TEL":"06-3551525","COUNTYNAME":"台南市","TOWNNAME":"安南區","MARKTYPE":"991","Class":"1"}},{"type":"Feature","id":11568,"geometry":{"type":"Point","coordinates":[120.18489361854617,23.047148539874172]},"properties":{"OBJECTID":11568,"LANDMARKID":"1002100000054","LANDMARKCO":"106","LANDMARKNA":"台南市安南區戶政事務所","LANDMARKAD":"1002106","ADDRESS":"台南市安南區溪心里3鄰安中路二段306號","TEL":"06-2471161#10","COUNTYNAME":"台南市","TOWNNAME":"安南區","MARKTYPE":"991","Class":"1"}},{"type":"Feature","id":11569,"geometry":{"type":"Point","coordinates":[120.1759020723963,23.04921385546195]},"properties":{"OBJECTID":11569,"LANDMARKID":"1002100000053","LANDMARKCO":"105","LANDMARKNA":"台南市安南地政事務所","LANDMARKAD":"1002106","ADDRESS":"台南市安南區安中路三段356號","TEL":"06-2550330","COUNTYNAME":"台南市","TOWNNAME":"安南區","MARKTYPE":"991","Class":"1"}},{"type":"Feature","id":11570,"geometry":{"type":"Point","coordinates":[120.18513391299435,23.047047168075043]},"properties":{"OBJECTID":11570,"LANDMARKID":"1002100000046","LANDMARKCO":"104","LANDMARKNA":"南區國稅局安南稽徵所","LANDMARKAD":"1002106","ADDRESS":"台南市安南區安中路二段300號6樓","TEL":"06-2467780","COUNTYNAME":"台南市","TOWNNAME":"安南區","MARKTYPE":"991","Class":"1"}},{"type":"Feature","id":11571,"geometry":{"type":"Point","coordinates":[120.13678492297754,23.03210903075237]},"properties":{"OBJECTID":11571,"LANDMARKID":"1002100000001","LANDMARKCO":"101","LANDMARKNA":"工業局台南科技工業區服務中心","LANDMARKAD":"1002106","ADDRESS":"台南市安南區科技五路600號","TEL":"06-3840234","COUNTYNAME":"台南市","TOWNNAME":"安南區","MARKTYPE":"991","Class":"1"}},{"type":"Feature","id":11572,"geometry":{"type":"Point","coordinates":[120.13431914031679,23.058828200543267]},"properties":{"OBJECTID":11572,"LANDMARKID":"1002100000109","LANDMARKCO":"107","LANDMARKNA":"台南市消防局土城分隊","LANDMARKAD":"1002106","ADDRESS":"台南市安明路四段260號","TEL":"06-2575276","COUNTYNAME":"台南市","TOWNNAME":"安南區","MARKTYPE":"991","Class":"1"}},{"type":"Feature","id":11573,"geometry":{"type":"Point","coordinates":[120.07621645716591,23.046588460330685]},"properties":{"OBJECTID":11573,"LANDMARKID":"1002100000044","LANDMARKCO":"103","LANDMARKNA":"台南市城西垃圾掩埋場","LANDMARKAD":"1002106","ADDRESS":"台南市安南區土城子段507之84地號","TEL":"06-2573429","COUNTYNAME":"台南市","TOWNNAME":"安南區","MARKTYPE":"991","Class":"1"}},{"type":"Feature","id":11574,"geometry":{"type":"Point","coordinates":[120.18584687846102,23.046568464272173]},"properties":{"OBJECTID":11574,"LANDMARKID":"1002100000229","LANDMARKCO":"204","LANDMARKNA":"台南巿立圖書館安南分館","LANDMARKAD":"1002106","ADDRESS":"台南市安南區安中路二段301號3樓","TEL":" ","COUNTYNAME":"台南市","TOWNNAME":"安南區","MARKTYPE":"992","Class":"2"}},{"type":"Feature","id":11575,"geometry":{"type":"Point","coordinates":[120.12923383580996,23.062746469206171]},"properties":{"OBJECTID":11575,"LANDMARKID":"1002100000230","LANDMARKCO":"204","LANDMARKNA":"台南巿立圖書館土城分館","LANDMARKAD":"1002106","ADDRESS":"台南市安南區城西街一段20號3樓","TEL":" ","COUNTYNAME":"台南市","TOWNNAME":"安南區","MARKTYPE":"992","Class":"2"}},{"type":"Feature","id":11576,"geometry":{"type":"Point","coordinates":[120.17864567571692,23.049318240348185]},"properties":{"OBJECTID":11576,"LANDMARKID":"1002100000209","LANDMARKCO":"203","LANDMARKNA":"市立安南國中","LANDMARKAD":"1002106","ADDRESS":"台南市安南區安中路三段252號","TEL":"06-2567384","COUNTYNAME":"台南市","TOWNNAME":"安南區","MARKTYPE":"992","Class":"2"}},{"type":"Feature","id":11577,"geometry":{"type":"Point","coordinates":[120.13464989049979,23.018564953153149]},"properties":{"OBJECTID":11577,"LANDMARKID":"1002100000210","LANDMARKCO":"203","LANDMARKNA":"市立鎮海國小","LANDMARKAD":"1002106","ADDRESS":"台南市安南區顯草街一段381號","TEL":"06-2841700","COUNTYNAME":"台南市","TOWNNAME":"安南區","MARKTYPE":"992","Class":"2"}},{"type":"Feature","id":11578,"geometry":{"type":"Point","coordinates":[120.14572727703167,23.078132385332662]},"properties":{"OBJECTID":11578,"LANDMARKID":"1002100000211","LANDMARKCO":"203","LANDMARKNA":"市立學東國小","LANDMARKAD":"1002106","ADDRESS":"台南市安南區公學路六段589號","TEL":"06-2870017","COUNTYNAME":"台南市","TOWNNAME":"安南區","MARKTYPE":"992","Class":"2"}},{"type":"Feature","id":11579,"geometry":{"type":"Point","coordinates":[120.11675459952239,23.075167176793659]},"properties":{"OBJECTID":11579,"LANDMARKID":"1002100000212","LANDMARKCO":"203","LANDMARKNA":"市立青草國小","LANDMARKAD":"1002106","ADDRESS":"台南市安南區青砂街二段105巷32號","TEL":"06-2577631","COUNTYNAME":"台南市","TOWNNAME":"安南區","MARKTYPE":"992","Class":"2"}},{"type":"Feature","id":11580,"geometry":{"type":"Point","coordinates":[120.14902849466326,23.057110958727105]},"properties":{"OBJECTID":11580,"LANDMARKID":"1002100000139","LANDMARKCO":"202","LANDMARKNA":"市立土城高中","LANDMARKAD":"1002106","ADDRESS":"台南市安南區安中路五段265號","TEL":"06-2577014","COUNTYNAME":"台南市","TOWNNAME":"安南區","MARKTYPE":"992","Class":"2"}},{"type":"Feature","id":11581,"geometry":{"type":"Point","coordinates":[120.14902849466326,23.057110958727105]},"properties":{"OBJECTID":11581,"LANDMARKID":"1002100000197","LANDMARKCO":"203","LANDMARKNA":"市立土城國中","LANDMARKAD":"1002106","ADDRESS":"台南市安南區安中路五段265號","TEL":"06-2577014","COUNTYNAME":"台南市","TOWNNAME":"安南區","MARKTYPE":"992","Class":"2"}},{"type":"Feature","id":11582,"geometry":{"type":"Point","coordinates":[120.21820319839024,23.049560241867887]},"properties":{"OBJECTID":11582,"LANDMARKID":"1002100000198","LANDMARKCO":"203","LANDMARKNA":"市立安順國中","LANDMARKAD":"1002106","ADDRESS":"台南市安南區安和路三段227號","TEL":"06-2569652","COUNTYNAME":"台南市","TOWNNAME":"安南區","MARKTYPE":"992","Class":"2"}},{"type":"Feature","id":11583,"geometry":{"type":"Point","coordinates":[120.21873253451312,23.064541828104929]},"properties":{"OBJECTID":11583,"LANDMARKID":"1002100000199","LANDMARKCO":"203","LANDMARKNA":"市立和順國中","LANDMARKAD":"1002106","ADDRESS":"台南市安南區安和路五段184巷66號","TEL":"06-3551440","COUNTYNAME":"台南市","TOWNNAME":"安南區","MARKTYPE":"992","Class":"2"}},{"type":"Feature","id":11584,"geometry":{"type":"Point","coordinates":[120.16003468651091,23.073874618203927]},"properties":{"OBJECTID":11584,"LANDMARKID":"1002100000200","LANDMARKCO":"203","LANDMARKNA":"市立南興國小","LANDMARKAD":"1002106","ADDRESS":"台南市安南區公學路五段627號","TEL":"06-2873204","COUNTYNAME":"台南市","TOWNNAME":"安南區","MARKTYPE":"992","Class":"2"}},{"type":"Feature","id":11585,"geometry":{"type":"Point","coordinates":[120.19362941452685,23.040842622643737]},"properties":{"OBJECTID":11585,"LANDMARKID":"1002100000201","LANDMARKCO":"203","LANDMARKNA":"市立安慶國小","LANDMARKAD":"1002106","ADDRESS":"台南市安南區安中路一段703巷80號","TEL":"06-2560643","COUNTYNAME":"台南市","TOWNNAME":"安南區","MARKTYPE":"992","Class":"2"}},{"type":"Feature","id":11586,"geometry":{"type":"Point","coordinates":[120.17478764882392,23.049033884954088]},"properties":{"OBJECTID":11586,"LANDMARKID":"1002100000202","LANDMARKCO":"203","LANDMARKNA":"市立海東國小","LANDMARKAD":"1002106","ADDRESS":"台南市安南區安中路三段381號","TEL":"06-2567146","COUNTYNAME":"台南市","TOWNNAME":"安南區","MARKTYPE":"992","Class":"2"}},{"type":"Feature","id":11587,"geometry":{"type":"Point","coordinates":[120.21741234178039,23.048595200056301]},"properties":{"OBJECTID":11587,"LANDMARKID":"1002100000203","LANDMARKCO":"203","LANDMARKNA":"市立安順國小","LANDMARKAD":"1002106","ADDRESS":"台南市安南區安和路三段193號","TEL":"06-2569451","COUNTYNAME":"台南市","TOWNNAME":"安南區","MARKTYPE":"992","Class":"2"}},{"type":"Feature","id":11588,"geometry":{"type":"Point","coordinates":[120.2183680179388,23.066633261406981]},"properties":{"OBJECTID":11588,"LANDMARKID":"1002100000204","LANDMARKCO":"203","LANDMARKNA":"市立和順國小","LANDMARKAD":"1002106","ADDRESS":"台南市安南區安和路五段178巷5號","TEL":"06-3560691","COUNTYNAME":"台南市","TOWNNAME":"安南區","MARKTYPE":"992","Class":"2"}},{"type":"Feature","id":11589,"geometry":{"type":"Point","coordinates":[120.13081354028611,23.066058339435383]},"properties":{"OBJECTID":11589,"LANDMARKID":"1002100000205","LANDMARKCO":"203","LANDMARKNA":"市立土城國小","LANDMARKAD":"1002106","ADDRESS":"台南市安南區城東里城北路195號","TEL":"06-2577645","COUNTYNAME":"台南市","TOWNNAME":"安南區","MARKTYPE":"992","Class":"2"}},{"type":"Feature","id":11590,"geometry":{"type":"Point","coordinates":[120.1732497898891,23.063806758575165]},"properties":{"OBJECTID":11590,"LANDMARKID":"1002100000206","LANDMARKCO":"203","LANDMARKNA":"市立安佃國小","LANDMARKAD":"1002106","ADDRESS":"台南市安南區海佃路四段493號","TEL":"06-2567642","COUNTYNAME":"台南市","TOWNNAME":"安南區","MARKTYPE":"992","Class":"2"}},{"type":"Feature","id":11591,"geometry":{"type":"Point","coordinates":[120.20027519162004,23.028311362407361]},"properties":{"OBJECTID":11591,"LANDMARKID":"1002100000207","LANDMARKCO":"203","LANDMARKNA":"市立海佃國小","LANDMARKAD":"1002106","ADDRESS":"台南市安南區郡安路五段56號","TEL":"06-2505013","COUNTYNAME":"台南市","TOWNNAME":"安南區","MARKTYPE":"992","Class":"2"}},{"type":"Feature","id":11592,"geometry":{"type":"Point","coordinates":[120.15882584748312,23.055801739329688]},"properties":{"OBJECTID":11592,"LANDMARKID":"1002100000131","LANDMARKCO":"201","LANDMARKNA":"立德大學","LANDMARKAD":"1002106","ADDRESS":"台南市安南區安中路五段188號","TEL":"06-2552500","COUNTYNAME":"台南市","TOWNNAME":"安南區","MARKTYPE":"992","Class":"2"}},{"type":"Feature","id":11593,"geometry":{"type":"Point","coordinates":[120.12673225658716,23.036312825327403]},"properties":{"OBJECTID":11593,"LANDMARKID":"1002100000208","LANDMARKCO":"203","LANDMARKNA":"市立顯宮國小","LANDMARKAD":"1002106","ADDRESS":"台南市安南區顯草街二段775巷7號","TEL":"06-2841033","COUNTYNAME":"台南市","TOWNNAME":"安南區","MARKTYPE":"992","Class":"2"}},{"type":"Feature","id":11594,"geometry":{"type":"Point","coordinates":[120.21134357479792,23.035755619590748]},"properties":{"OBJECTID":11594,"LANDMARKID":"1002100000140","LANDMARKCO":"202","LANDMARKNA":"私立瀛海高中","LANDMARKAD":"1002106","ADDRESS":"台南市安南區長溪街一段76號","TEL":"06-2568582","COUNTYNAME":"台南市","TOWNNAME":"安南區","MARKTYPE":"992","Class":"2"}},{"type":"Feature","id":11595,"geometry":{"type":"Point","coordinates":[120.0932870660978,23.056170773435277]},"properties":{"OBJECTID":11595,"LANDMARKID":"1002100000193","LANDMARKCO":"203","LANDMARKNA":"市立土城國小城溪分班","LANDMARKAD":"1002106","ADDRESS":"台南市安南區城溪路541號","TEL":"06-2573301","COUNTYNAME":"台南市","TOWNNAME":"安南區","MARKTYPE":"992","Class":"2"}},{"type":"Feature","id":11596,"geometry":{"type":"Point","coordinates":[120.14530784121158,23.077495824152553]},"properties":{"OBJECTID":11596,"LANDMARKID":"1002100000194","LANDMARKCO":"203","LANDMARKNA":"市立南興國小學東分校","LANDMARKAD":"1002106","ADDRESS":"台南市安南區","TEL":" ","COUNTYNAME":"台南市","TOWNNAME":"安南區","MARKTYPE":"992","Class":"2"}},{"type":"Feature","id":11597,"geometry":{"type":"Point","coordinates":[120.19717833206838,23.064864174721059]},"properties":{"OBJECTID":11597,"LANDMARKID":"1002100000195","LANDMARKCO":"203","LANDMARKNA":"市立長安國小","LANDMARKAD":"1002106","ADDRESS":"台南市安南區長溪街三段249號","TEL":"06-2569914","COUNTYNAME":"台南市","TOWNNAME":"安南區","MARKTYPE":"992","Class":"2"}},{"type":"Feature","id":11598,"geometry":{"type":"Point","coordinates":[120.16026592349505,23.064397812870883]},"properties":{"OBJECTID":11598,"LANDMARKID":"1002100000130","LANDMARKCO":"201","LANDMARKNA":"興國管理學院","LANDMARKAD":"1002106","ADDRESS":"台南市安南區台江大道3段600號","TEL":"06-2873335","COUNTYNAME":"台南市","TOWNNAME":"安南區","MARKTYPE":"992","Class":"2"}},{"type":"Feature","id":11599,"geometry":{"type":"Point","coordinates":[120.22132493850016,23.064619142853058]},"properties":{"OBJECTID":11599,"LANDMARKID":"1002100000196","LANDMARKCO":"203","LANDMARKNA":"國立台南啟智學校","LANDMARKAD":"1002106","ADDRESS":"台南市安南區長和街二段74號","TEL":"06-3554591","COUNTYNAME":"台南市","TOWNNAME":"安南區","MARKTYPE":"992","Class":"2"}},{"type":"Feature","id":11600,"geometry":{"type":"Point","coordinates":[120.12952856462239,23.066889735917677]},"properties":{"OBJECTID":11600,"LANDMARKID":"1002100000270","LANDMARKCO":"303","LANDMARKNA":"鹿耳門聖母廟停車場","LANDMARKAD":"1002106","ADDRESS":"台南市 安南區城安路160號","TEL":" ","COUNTYNAME":"台南市","TOWNNAME":"安南區","MARKTYPE":"993","Class":"303"}}]}