{"type":"FeatureCollection","features":[{"type":"Feature","id":25601,"geometry":{"type":"Point","coordinates":[120.97932880183332,24.803048838760589]},"properties":{"OBJECTID":25601,"LANDMARKID":"1001800000029","LANDMARKCO":"103","LANDMARKNA":"新竹市青少年福利服務中心","LANDMARKAD":"1001801","ADDRESS":"新竹市公園路281號","TEL":"035-240633","COUNTYNAME":"新竹市","TOWNNAME":"東區","MARKTYPE":"991","Class":"1"}},{"type":"Feature","id":25602,"geometry":{"type":"Point","coordinates":[120.9720729466174,24.804321800000782]},"properties":{"OBJECTID":25602,"LANDMARKID":"1001800000030","LANDMARKCO":"103","LANDMARKNA":"新竹市政府教師研習中心","LANDMARKAD":"1001801","ADDRESS":"新竹市民族路33號2樓","TEL":"035-249617","COUNTYNAME":"新竹市","TOWNNAME":"東區","MARKTYPE":"991","Class":"1"}},{"type":"Feature","id":25627,"geometry":{"type":"Point","coordinates":[121.01619257897805,24.777396053552039]},"properties":{"OBJECTID":25627,"LANDMARKID":"1001800000102","LANDMARKCO":"202","LANDMARKNA":"國立科學工業園區實驗高中","LANDMARKAD":"1001801","ADDRESS":"新竹市介壽路300號","TEL":"03-5777011","COUNTYNAME":"新竹市","TOWNNAME":"東區","MARKTYPE":"992","Class":"2"}},{"type":"Feature","id":25628,"geometry":{"type":"Point","coordinates":[121.00218082533274,24.797908211830304]},"properties":{"OBJECTID":25628,"LANDMARKID":"1001800000103","LANDMARKCO":"202","LANDMARKNA":"市立建功高中","LANDMARKAD":"1001801","ADDRESS":"新竹市建功二路17號","TEL":"03-5745892","COUNTYNAME":"新竹市","TOWNNAME":"東區","MARKTYPE":"992","Class":"2"}},{"type":"Feature","id":25629,"geometry":{"type":"Point","coordinates":[121.01186398208546,24.786031630063519]},"properties":{"OBJECTID":25629,"LANDMARKID":"1001800000137","LANDMARKCO":"203","LANDMARKNA":"市立光武國中","LANDMARKAD":"1001801","ADDRESS":"新竹市光復路一段512號","TEL":"035-786856","COUNTYNAME":"新竹市","TOWNNAME":"東區","MARKTYPE":"992","Class":"2"}},{"type":"Feature","id":25630,"geometry":{"type":"Point","coordinates":[120.98064326429652,24.813942639731092]},"properties":{"OBJECTID":25630,"LANDMARKID":"1001800000138","LANDMARKCO":"203","LANDMARKNA":"市立三民國中","LANDMARKAD":"1001801","ADDRESS":"新竹市自由路95巷15號","TEL":"035-339825","COUNTYNAME":"新竹市","TOWNNAME":"東區","MARKTYPE":"992","Class":"2"}},{"type":"Feature","id":25631,"geometry":{"type":"Point","coordinates":[120.96569872446328,24.790028250833167]},"properties":{"OBJECTID":25631,"LANDMARKID":"1001800000139","LANDMARKCO":"203","LANDMARKNA":"市立育賢國中","LANDMARKAD":"1001801","ADDRESS":"新竹市南大路569號","TEL":"035-262215","COUNTYNAME":"新竹市","TOWNNAME":"東區","MARKTYPE":"992","Class":"2"}},{"type":"Feature","id":25632,"geometry":{"type":"Point","coordinates":[120.97679722492647,24.793843037529868]},"properties":{"OBJECTID":25632,"LANDMARKID":"1001800000140","LANDMARKCO":"203","LANDMARKNA":"市立建華國中","LANDMARKAD":"1001801","ADDRESS":"新竹市學府路2號","TEL":"035-222107","COUNTYNAME":"新竹市","TOWNNAME":"東區","MARKTYPE":"992","Class":"2"}},{"type":"Feature","id":25633,"geometry":{"type":"Point","coordinates":[120.97814019018847,24.794354837166541]},"properties":{"OBJECTID":25633,"LANDMARKID":"1001800000141","LANDMARKCO":"203","LANDMARKNA":"市立培英國中","LANDMARKAD":"1001801","ADDRESS":"新竹市學府路4號","TEL":"035-721301","COUNTYNAME":"新竹市","TOWNNAME":"東區","MARKTYPE":"992","Class":"2"}},{"type":"Feature","id":25634,"geometry":{"type":"Point","coordinates":[120.99863672250659,24.800491075670184]},"properties":{"OBJECTID":25634,"LANDMARKID":"1001800000142","LANDMARKCO":"203","LANDMARKNA":"市立建功國中","LANDMARKAD":"1001801","ADDRESS":"新竹市建功一路104巷22號","TEL":"035-745892","COUNTYNAME":"新竹市","TOWNNAME":"東區","MARKTYPE":"992","Class":"2"}},{"type":"Feature","id":25635,"geometry":{"type":"Point","coordinates":[120.97092001187973,24.812291279632156]},"properties":{"OBJECTID":25635,"LANDMARKID":"1001800000143","LANDMARKCO":"203","LANDMARKNA":"私立曙光國小","LANDMARKAD":"1001801","ADDRESS":"新竹市北大路70號","TEL":"035-328283","COUNTYNAME":"新竹市","TOWNNAME":"東區","MARKTYPE":"992","Class":"2"}},{"type":"Feature","id":25636,"geometry":{"type":"Point","coordinates":[120.9720729466174,24.804321800000782]},"properties":{"OBJECTID":25636,"LANDMARKID":"1001800000144","LANDMARKCO":"203","LANDMARKNA":"市立東門國小","LANDMARKAD":"1001801","ADDRESS":"新竹市民族路33號","TEL":"035-222109","COUNTYNAME":"新竹市","TOWNNAME":"東區","MARKTYPE":"992","Class":"2"}},{"type":"Feature","id":25637,"geometry":{"type":"Point","coordinates":[121.00323491531178,24.812969378716442]},"properties":{"OBJECTID":25637,"LANDMARKID":"1001800000145","LANDMARKCO":"203","LANDMARKNA":"市立水源國小","LANDMARKAD":"1001801","ADDRESS":"新竹市仰德路11號","TEL":"035-711125","COUNTYNAME":"新竹市","TOWNNAME":"東區","MARKTYPE":"992","Class":"2"}},{"type":"Feature","id":25638,"geometry":{"type":"Point","coordinates":[121.00746386409288,24.789274434435526]},"properties":{"OBJECTID":25638,"LANDMARKID":"1001800000146","LANDMARKCO":"203","LANDMARKNA":"市立龍山國小","LANDMARKAD":"1001801","ADDRESS":"新竹市光復路一段574號","TEL":"035-774287","COUNTYNAME":"新竹市","TOWNNAME":"東區","MARKTYPE":"992","Class":"2"}},{"type":"Feature","id":25639,"geometry":{"type":"Point","coordinates":[120.98145418836354,24.812639294921841]},"properties":{"OBJECTID":25639,"LANDMARKID":"1001800000147","LANDMARKCO":"203","LANDMARKNA":"市立三民國小","LANDMARKAD":"1001801","ADDRESS":"新竹市自由路66號","TEL":"035-724717","COUNTYNAME":"新竹市","TOWNNAME":"東區","MARKTYPE":"992","Class":"2"}},{"type":"Feature","id":25640,"geometry":{"type":"Point","coordinates":[120.99863672250659,24.800491075670184]},"properties":{"OBJECTID":25640,"LANDMARKID":"1001800000148","LANDMARKCO":"203","LANDMARKNA":"市立建功國小","LANDMARKAD":"1001801","ADDRESS":"新竹市建功一路104巷22號","TEL":"035-713447","COUNTYNAME":"新竹市","TOWNNAME":"東區","MARKTYPE":"992","Class":"2"}},{"type":"Feature","id":25641,"geometry":{"type":"Point","coordinates":[120.974739331406,24.796584314640359]},"properties":{"OBJECTID":25641,"LANDMARKID":"1001800000149","LANDMARKCO":"203","LANDMARKNA":"市立竹蓮國小","LANDMARKAD":"1001801","ADDRESS":"新竹市食品路226號","TEL":"035-223066","COUNTYNAME":"新竹市","TOWNNAME":"東區","MARKTYPE":"992","Class":"2"}},{"type":"Feature","id":25642,"geometry":{"type":"Point","coordinates":[120.98564816038059,24.799937790378046]},"properties":{"OBJECTID":25642,"LANDMARKID":"1001800000150","LANDMARKCO":"203","LANDMARKNA":"市立東園國小","LANDMARKAD":"1001801","ADDRESS":"新竹市園後街25號","TEL":"035-712496","COUNTYNAME":"新竹市","TOWNNAME":"東區","MARKTYPE":"992","Class":"2"}},{"type":"Feature","id":25643,"geometry":{"type":"Point","coordinates":[120.96639515417164,24.796183746393865]},"properties":{"OBJECTID":25643,"LANDMARKID":"1001800000151","LANDMARKCO":"203","LANDMARKNA":"市立新竹國小","LANDMARKAD":"1001801","ADDRESS":"新竹市興學街106號","TEL":"035-222153","COUNTYNAME":"新竹市","TOWNNAME":"東區","MARKTYPE":"992","Class":"2"}},{"type":"Feature","id":25644,"geometry":{"type":"Point","coordinates":[120.99863672250659,24.800491075670184]},"properties":{"OBJECTID":25644,"LANDMARKID":"1001800000152","LANDMARKCO":"203","LANDMARKNA":"建功國小附設幼稚","LANDMARKAD":"1001801","ADDRESS":"新竹市建功一路104巷22號","TEL":"03-5713447","COUNTYNAME":"新竹市","TOWNNAME":"東區","MARKTYPE":"992","Class":"2"}},{"type":"Feature","id":25645,"geometry":{"type":"Point","coordinates":[120.96825303763474,24.79067969772677]},"properties":{"OBJECTID":25645,"LANDMARKID":"1001800000153","LANDMARKCO":"203","LANDMARKNA":"市立陽光國小","LANDMARKAD":"1001801","ADDRESS":"新竹市明湖路200號","TEL":"03-5629600","COUNTYNAME":"新竹市","TOWNNAME":"東區","MARKTYPE":"992","Class":"2"}},{"type":"Feature","id":25646,"geometry":{"type":"Point","coordinates":[120.974739331406,24.796584314640359]},"properties":{"OBJECTID":25646,"LANDMARKID":"1001800000154","LANDMARKCO":"203","LANDMARKNA":"市立高峰國小(籌)","LANDMARKAD":"1001801","ADDRESS":"新竹市食品路226號（暫設）","TEL":" ","COUNTYNAME":"新竹市","TOWNNAME":"東區","MARKTYPE":"992","Class":"2"}},{"type":"Feature","id":25647,"geometry":{"type":"Point","coordinates":[120.9720729466174,24.804321800000782]},"properties":{"OBJECTID":25647,"LANDMARKID":"1001800000155","LANDMARKCO":"203","LANDMARKNA":"市立青草湖國小(籌)","LANDMARKAD":"1001801","ADDRESS":"新竹市民族路33號","TEL":" ","COUNTYNAME":"新竹市","TOWNNAME":"東區","MARKTYPE":"992","Class":"2"}},{"type":"Feature","id":25626,"geometry":{"type":"Point","coordinates":[120.98471257726712,24.796856045142739]},"properties":{"OBJECTID":25626,"LANDMARKID":"1001800000101","LANDMARKCO":"202","LANDMARKNA":"國立新竹高商","LANDMARKAD":"1001801","ADDRESS":"新竹市學府路128號","TEL":"035-722150","COUNTYNAME":"新竹市","TOWNNAME":"東區","MARKTYPE":"992","Class":"2"}},{"type":"Feature","id":25625,"geometry":{"type":"Point","coordinates":[121.02009185248161,24.782054600466328]},"properties":{"OBJECTID":25625,"LANDMARKID":"1001800000100","LANDMARKCO":"202","LANDMARKNA":"私立世界高中","LANDMARKAD":"1001801","ADDRESS":"新竹市光復路一段257號","TEL":"03-5783271","COUNTYNAME":"新竹市","TOWNNAME":"東區","MARKTYPE":"992","Class":"2"}},{"type":"Feature","id":25624,"geometry":{"type":"Point","coordinates":[120.98302929707579,24.809441192120829]},"properties":{"OBJECTID":25624,"LANDMARKID":"1001800000099","LANDMARKCO":"202","LANDMARKNA":"國立新竹高工","LANDMARKAD":"1001801","ADDRESS":"新竹市中華路二段2號","TEL":"035-318742","COUNTYNAME":"新竹市","TOWNNAME":"東區","MARKTYPE":"992","Class":"2"}},{"type":"Feature","id":25623,"geometry":{"type":"Point","coordinates":[120.98018092576014,24.795152362947395]},"properties":{"OBJECTID":25623,"LANDMARKID":"1001800000098","LANDMARKCO":"202","LANDMARKNA":"國立新竹高中","LANDMARKAD":"1001801","ADDRESS":"新竹市學府路36號","TEL":"035-713101","COUNTYNAME":"新竹市","TOWNNAME":"東區","MARKTYPE":"992","Class":"2"}},{"type":"Feature","id":25622,"geometry":{"type":"Point","coordinates":[120.99303974114592,24.79874411217811]},"properties":{"OBJECTID":25622,"LANDMARKID":"1001800000097","LANDMARKCO":"202","LANDMARKNA":"私立光復高中","LANDMARKAD":"1001801","ADDRESS":"新竹市光復路二段153號","TEL":"035-715112","COUNTYNAME":"新竹市","TOWNNAME":"東區","MARKTYPE":"992","Class":"2"}},{"type":"Feature","id":25621,"geometry":{"type":"Point","coordinates":[121.0000233732281,24.789355735601436]},"properties":{"OBJECTID":25621,"LANDMARKID":"1001800000096","LANDMARKCO":"201","LANDMARKNA":"國立交通大學","LANDMARKAD":"1001801","ADDRESS":"新竹市大學路1001號","TEL":"035-712121","COUNTYNAME":"新竹市","TOWNNAME":"東區","MARKTYPE":"992","Class":"2"}},{"type":"Feature","id":25620,"geometry":{"type":"Point","coordinates":[121.02423930541634,24.780265725702638]},"properties":{"OBJECTID":25620,"LANDMARKID":"1001800000135","LANDMARKCO":"203","LANDMARKNA":"市立新科國中","LANDMARKAD":"1001801","ADDRESS":"新竹市光復路一段89巷88號","TEL":"03-6686387","COUNTYNAME":"新竹市","TOWNNAME":"東區","MARKTYPE":"992","Class":"2"}},{"type":"Feature","id":25619,"geometry":{"type":"Point","coordinates":[121.0215990828238,24.7838776053628]},"properties":{"OBJECTID":25619,"LANDMARKID":"1001800000134","LANDMARKCO":"203","LANDMARKNA":"市立關東國小","LANDMARKAD":"1001801","ADDRESS":"新竹市光復路一段108巷55號","TEL":"035-775645","COUNTYNAME":"新竹市","TOWNNAME":"東區","MARKTYPE":"992","Class":"2"}},{"type":"Feature","id":25618,"geometry":{"type":"Point","coordinates":[121.01659423030554,24.777197064139898]},"properties":{"OBJECTID":25618,"LANDMARKID":"1001800000106","LANDMARKCO":"202","LANDMARKNA":"國立科學工業園區高中","LANDMARKAD":"1001801","ADDRESS":"新竹市園區一路101號","TEL":"035-777016","COUNTYNAME":"新竹市","TOWNNAME":"東區","MARKTYPE":"992","Class":"2"}},{"type":"Feature","id":25617,"geometry":{"type":"Point","coordinates":[120.97271802801609,24.81195609266355]},"properties":{"OBJECTID":25617,"LANDMARKID":"1001800000105","LANDMARKCO":"202","LANDMARKNA":"私立曙光女中","LANDMARKAD":"1001801","ADDRESS":"新竹市北大路61號","TEL":"035-329001","COUNTYNAME":"新竹市","TOWNNAME":"東區","MARKTYPE":"992","Class":"2"}},{"type":"Feature","id":25616,"geometry":{"type":"Point","coordinates":[120.97539025072531,24.80563650047964]},"properties":{"OBJECTID":25616,"LANDMARKID":"1001800000104","LANDMARKCO":"202","LANDMARKNA":"國立新竹女中","LANDMARKAD":"1001801","ADDRESS":"新竹市中華路二段270號","TEL":"035-325984","COUNTYNAME":"新竹市","TOWNNAME":"東區","MARKTYPE":"992","Class":"2"}},{"type":"Feature","id":25615,"geometry":{"type":"Point","coordinates":[121.00357525033354,24.787593982507925]},"properties":{"OBJECTID":25615,"LANDMARKID":"1001800000158","LANDMARKCO":"204","LANDMARKNA":"新竹縣立圖書館中華信義神學院分館","LANDMARKAD":"1001801","ADDRESS":"新竹市東區大學路51巷11號","TEL":" ","COUNTYNAME":"新竹市","TOWNNAME":"東區","MARKTYPE":"992","Class":"2"}},{"type":"Feature","id":25614,"geometry":{"type":"Point","coordinates":[120.967975316199,24.801229679651083]},"properties":{"OBJECTID":25614,"LANDMARKID":"1001800000166","LANDMARKCO":"207","LANDMARKNA":"李澤藩美術館","LANDMARKAD":"1001801","ADDRESS":"新竹市東區林森路57號3樓","TEL":" ","COUNTYNAME":"新竹市","TOWNNAME":"東區","MARKTYPE":"992","Class":"2"}},{"type":"Feature","id":25613,"geometry":{"type":"Point","coordinates":[120.97819245728807,24.80135731055887]},"properties":{"OBJECTID":25613,"LANDMARKID":"1001800000165","LANDMARKCO":"205","LANDMARKNA":"玻璃工藝博物館","LANDMARKAD":"1001801","ADDRESS":"新竹市北區東大路一段2號","TEL":" ","COUNTYNAME":"新竹市","TOWNNAME":"東區","MARKTYPE":"992","Class":"2"}},{"type":"Feature","id":25612,"geometry":{"type":"Point","coordinates":[120.97892334348718,24.780465006091745]},"properties":{"OBJECTID":25612,"LANDMARKID":"1001800000164","LANDMARKCO":"205","LANDMARKNA":"古奇峰育樂園文物館","LANDMARKAD":"1001801","ADDRESS":"新竹市東區高峰路306巷66號","TEL":"03-5215553","COUNTYNAME":"新竹市","TOWNNAME":"東區","MARKTYPE":"992","Class":"2"}},{"type":"Feature","id":25611,"geometry":{"type":"Point","coordinates":[120.96969785984462,24.804979757053825]},"properties":{"OBJECTID":25611,"LANDMARKID":"1001800000163","LANDMARKCO":"205","LANDMARKNA":"影像博物館","LANDMARKAD":"1001801","ADDRESS":"新竹市北區中正路65號","TEL":"03-5285840","COUNTYNAME":"新竹市","TOWNNAME":"東區","MARKTYPE":"992","Class":"2"}},{"type":"Feature","id":25610,"geometry":{"type":"Point","coordinates":[120.97779995004583,24.769070825969884]},"properties":{"OBJECTID":25610,"LANDMARKID":"1001800000060","LANDMARKCO":"107","LANDMARKNA":"嘉義縣消防局消防局明湖消防分隊","LANDMARKAD":"1001801","ADDRESS":"新竹市東區明湖路1075巷9號","TEL":"035-292925","COUNTYNAME":"新竹市","TOWNNAME":"東區","MARKTYPE":"991","Class":"1"}},{"type":"Feature","id":25609,"geometry":{"type":"Point","coordinates":[120.98974679920919,24.798435676459743]},"properties":{"OBJECTID":25609,"LANDMARKID":"1001800000023","LANDMARKCO":"101","LANDMARKNA":"工業技術研究院化學工業研究所","LANDMARKAD":"1001801","ADDRESS":"新竹市光復路二段321號","TEL":"03-5722948","COUNTYNAME":"新竹市","TOWNNAME":"東區","MARKTYPE":"991","Class":"1"}},{"type":"Feature","id":25608,"geometry":{"type":"Point","coordinates":[120.97192599346236,24.812365337572444]},"properties":{"OBJECTID":25608,"LANDMARKID":"1001800000022","LANDMARKCO":"101","LANDMARKNA":"經濟部智慧財產局","LANDMARKAD":"1001801","ADDRESS":"新竹市北大路68號3樓","TEL":"03-5350235","COUNTYNAME":"新竹市","TOWNNAME":"東區","MARKTYPE":"991","Class":"1"}},{"type":"Feature","id":25607,"geometry":{"type":"Point","coordinates":[120.96977368390449,24.810583515606748]},"properties":{"OBJECTID":25607,"LANDMARKID":"1001800000021","LANDMARKCO":"101","LANDMARKNA":"水利署第二河川局","LANDMARKAD":"1001801","ADDRESS":"新竹市北大路97號","TEL":"03-5322334","COUNTYNAME":"新竹市","TOWNNAME":"東區","MARKTYPE":"991","Class":"1"}},{"type":"Feature","id":25606,"geometry":{"type":"Point","coordinates":[120.97692473999801,24.807932785271646]},"properties":{"OBJECTID":25606,"LANDMARKID":"1001800000020","LANDMARKCO":"101","LANDMARKNA":"農糧署新竹辦事處","LANDMARKAD":"1001801","ADDRESS":"新竹市民族路111號","TEL":"035-327141","COUNTYNAME":"新竹市","TOWNNAME":"東區","MARKTYPE":"991","Class":"1"}},{"type":"Feature","id":25605,"geometry":{"type":"Point","coordinates":[120.97625259722473,24.808191425736634]},"properties":{"OBJECTID":25605,"LANDMARKID":"1001800000019","LANDMARKCO":"101","LANDMARKNA":"標準檢驗局新竹分局","LANDMARKAD":"1001801","ADDRESS":"新竹市民族路109巷14號","TEL":"03-5427011","COUNTYNAME":"新竹市","TOWNNAME":"東區","MARKTYPE":"991","Class":"1"}},{"type":"Feature","id":25604,"geometry":{"type":"Point","coordinates":[120.97059009123052,24.811499432254127]},"properties":{"OBJECTID":25604,"LANDMARKID":"1001800000047","LANDMARKCO":"104","LANDMARKNA":"北區國稅局新竹市分局北大路辦","LANDMARKAD":"1001801","ADDRESS":"新竹市北大路90之2號","TEL":"03-5336060","COUNTYNAME":"新竹市","TOWNNAME":"東區","MARKTYPE":"991","Class":"1"}},{"type":"Feature","id":25603,"geometry":{"type":"Point","coordinates":[120.98600763929272,24.801609238436193]},"properties":{"OBJECTID":25603,"LANDMARKID":"1001800000025","LANDMARKCO":"101","LANDMARKNA":"新竹後備司令部","LANDMARKAD":"1001801","ADDRESS":"新竹市光復路二段798號","TEL":"035-716066","COUNTYNAME":"新竹市","TOWNNAME":"東區","MARKTYPE":"991","Class":"1"}},{"type":"Feature","id":25648,"geometry":{"type":"Point","coordinates":[121.01228476594513,24.781941495846741]},"properties":{"OBJECTID":25648,"LANDMARKID":"1001800000156","LANDMARKCO":"203","LANDMARKNA":"市立科園國小","LANDMARKAD":"1001801","ADDRESS":"新竹市科學園路171號","TEL":"03-6668421","COUNTYNAME":"新竹市","TOWNNAME":"東區","MARKTYPE":"992","Class":"2"}},{"type":"Feature","id":25673,"geometry":{"type":"Point","coordinates":[120.98685381115699,24.795490037287831]},"properties":{"OBJECTID":25673,"LANDMARKID":"1001800000182","LANDMARKCO":"303","LANDMARKNA":"十八尖山停車場","LANDMARKAD":"1001801","ADDRESS":"新竹市東區","TEL":" ","COUNTYNAME":"新竹市","TOWNNAME":"東區","MARKTYPE":"993","Class":"303"}},{"type":"Feature","id":25674,"geometry":{"type":"Point","coordinates":[120.99399935696393,24.799257254154419]},"properties":{"OBJECTID":25674,"LANDMARKID":"1001800000183","LANDMARKCO":"303","LANDMARKNA":"地下停車場","LANDMARKAD":"1001801","ADDRESS":"新竹市東區建","TEL":" ","COUNTYNAME":"新竹市","TOWNNAME":"東區","MARKTYPE":"993","Class":"303"}},{"type":"Feature","id":25675,"geometry":{"type":"Point","coordinates":[121.00220890092494,24.7827542375469]},"properties":{"OBJECTID":25675,"LANDMARKID":"1001800000184","LANDMARKCO":"303","LANDMARKNA":"展業一路停車場","LANDMARKAD":"1001801","ADDRESS":"新竹市東區","TEL":" ","COUNTYNAME":"新竹市","TOWNNAME":"東區","MARKTYPE":"993","Class":"303"}},{"type":"Feature","id":25676,"geometry":{"type":"Point","coordinates":[120.96993721515366,24.800827714360409]},"properties":{"OBJECTID":25676,"LANDMARKID":"1001800000185","LANDMARKCO":"303","LANDMARKNA":"新竹市政府站前立體機械停車場","LANDMARKAD":"1001801","ADDRESS":"新竹市東區","TEL":" ","COUNTYNAME":"新竹市","TOWNNAME":"東區","MARKTYPE":"993","Class":"303"}},{"type":"Feature","id":25677,"geometry":{"type":"Point","coordinates":[120.97969508758985,24.81114281092751]},"properties":{"OBJECTID":25677,"LANDMARKID":"1001800000186","LANDMARKCO":"303","LANDMARKNA":"三民國中旁臨時停車場","LANDMARKAD":"1001801","ADDRESS":"新竹市東區","TEL":" ","COUNTYNAME":"新竹市","TOWNNAME":"東區","MARKTYPE":"993","Class":"303"}},{"type":"Feature","id":25678,"geometry":{"type":"Point","coordinates":[120.97614864770361,24.803037107842155]},"properties":{"OBJECTID":25678,"LANDMARKID":"1001800000187","LANDMARKCO":"303","LANDMARKNA":"東大路橋停車場","LANDMARKAD":"1001801","ADDRESS":"新竹市東區","TEL":" ","COUNTYNAME":"新竹市","TOWNNAME":"東區","MARKTYPE":"993","Class":"303"}},{"type":"Feature","id":25679,"geometry":{"type":"Point","coordinates":[120.96842087733015,24.799752356623006]},"properties":{"OBJECTID":25679,"LANDMARKID":"1001800000188","LANDMARKCO":"303","LANDMARKNA":"南門機械停車場","LANDMARKAD":"1001801","ADDRESS":"新竹市東區中華路二段541之1號","TEL":" ","COUNTYNAME":"新竹市","TOWNNAME":"東區","MARKTYPE":"993","Class":"303"}},{"type":"Feature","id":25680,"geometry":{"type":"Point","coordinates":[120.96944816966769,24.800441569444089]},"properties":{"OBJECTID":25680,"LANDMARKID":"1001800000189","LANDMARKCO":"303","LANDMARKNA":"站前機械停車場","LANDMARKAD":"1001801","ADDRESS":"新竹市東區中華路二段495號","TEL":" ","COUNTYNAME":"新竹市","TOWNNAME":"東區","MARKTYPE":"993","Class":"303"}},{"type":"Feature","id":25681,"geometry":{"type":"Point","coordinates":[120.9722806779056,24.801751182754476]},"properties":{"OBJECTID":25681,"LANDMARKID":"1001800000167","LANDMARKCO":"301","LANDMARKNA":"新竹火車站","LANDMARKAD":"1001801","ADDRESS":"新竹市東區榮光里6鄰中華路二段445號","TEL":"03-5237441","COUNTYNAME":"新竹市","TOWNNAME":"東區","MARKTYPE":"993","Class":"301"}},{"type":"Feature","id":25682,"geometry":{"type":"Point","coordinates":[120.97108883467683,24.798593668261972]},"properties":{"OBJECTID":25682,"LANDMARKID":"1001800000257","LANDMARKCO":"402","LANDMARKNA":"中華電信-新竹南大特約服務中心","LANDMARKAD":"1001801","ADDRESS":"新竹市東區南大路334號","TEL":"03-5613300","COUNTYNAME":"新竹市","TOWNNAME":"東區","MARKTYPE":"994","Class":"4"}},{"type":"Feature","id":25683,"geometry":{"type":"Point","coordinates":[121.02280519456681,24.78131349891143]},"properties":{"OBJECTID":25683,"LANDMARKID":"1001800000258","LANDMARKCO":"402","LANDMARKNA":"中華電信-新竹竹科特約服務中心","LANDMARKAD":"1001801","ADDRESS":"新竹市光復路一段149號","TEL":"03-5785757","COUNTYNAME":"新竹市","TOWNNAME":"東區","MARKTYPE":"994","Class":"4"}},{"type":"Feature","id":25684,"geometry":{"type":"Point","coordinates":[120.99825923359033,24.795905608218682]},"properties":{"OBJECTID":25684,"LANDMARKID":"1001800000259","LANDMARKCO":"402","LANDMARKNA":"中華電信-新竹光復特約服務中心","LANDMARKAD":"1001801","ADDRESS":"新竹市光復路二段330號","TEL":"03-5726363","COUNTYNAME":"新竹市","TOWNNAME":"東區","MARKTYPE":"994","Class":"4"}},{"type":"Feature","id":25685,"geometry":{"type":"Point","coordinates":[120.99992087234726,24.79883993321786]},"properties":{"OBJECTID":25685,"LANDMARKID":"1001800000260","LANDMARKCO":"402","LANDMARKNA":"中華電信-建新服務中心","LANDMARKAD":"1001801","ADDRESS":"新竹市建新路112號","TEL":"123或0800-080-123","COUNTYNAME":"新竹市","TOWNNAME":"東區","MARKTYPE":"994","Class":"4"}},{"type":"Feature","id":25686,"geometry":{"type":"Point","coordinates":[120.97108883467683,24.798593668261972]},"properties":{"OBJECTID":25686,"LANDMARKID":"1001800000261","LANDMARKCO":"402","LANDMARKNA":"中華電信-新竹南大特約服務中心","LANDMARKAD":"1001801","ADDRESS":"新竹市東區南大路334號","TEL":"03-5613300","COUNTYNAME":"新竹市","TOWNNAME":"東區","MARKTYPE":"994","Class":"4"}},{"type":"Feature","id":25687,"geometry":{"type":"Point","coordinates":[120.96927780326537,24.801997330523395]},"properties":{"OBJECTID":25687,"LANDMARKID":"1001800000262","LANDMARKCO":"402","LANDMARKNA":"中華電信-林森服務中心","LANDMARKAD":"1001801","ADDRESS":"新竹市林森路22號","TEL":"123或0800-080-123","COUNTYNAME":"新竹市","TOWNNAME":"東區","MARKTYPE":"994","Class":"4"}},{"type":"Feature","id":25688,"geometry":{"type":"Point","coordinates":[120.97184943642239,24.80358678697884]},"properties":{"OBJECTID":25688,"LANDMARKID":"1001800000263","LANDMARKCO":"402","LANDMARKNA":"遠傳電信-新竹門市","LANDMARKAD":"1001801","ADDRESS":"新竹市民族路25號","TEL":" ","COUNTYNAME":"新竹市","TOWNNAME":"東區","MARKTYPE":"994","Class":"4"}},{"type":"Feature","id":25689,"geometry":{"type":"Point","coordinates":[120.97358941439416,24.808453303874316]},"properties":{"OBJECTID":25689,"LANDMARKID":"1001800000264","LANDMARKCO":"402","LANDMARKNA":"威寶電信-新竹中央直營服務中心","LANDMARKAD":"1001801","ADDRESS":"新竹市中央路166之2號","TEL":" ","COUNTYNAME":"新竹市","TOWNNAME":"東區","MARKTYPE":"994","Class":"4"}},{"type":"Feature","id":25690,"geometry":{"type":"Point","coordinates":[120.96815029908238,24.801807258082327]},"properties":{"OBJECTID":25690,"LANDMARKID":"1001800000265","LANDMARKCO":"402","LANDMARKNA":"威寶電信-新竹武昌特約服務中心","LANDMARKAD":"1001801","ADDRESS":"新竹市東區成功里武昌街52號","TEL":"03-5244183","COUNTYNAME":"新竹市","TOWNNAME":"東區","MARKTYPE":"994","Class":"4"}},{"type":"Feature","id":25691,"geometry":{"type":"Point","coordinates":[120.9921168507538,24.799264069211475]},"properties":{"OBJECTID":25691,"LANDMARKID":"1001800000266","LANDMARKCO":"402","LANDMARKNA":"威寶電信-新竹光復特約服務中心","LANDMARKAD":"1001801","ADDRESS":"新竹市光復路二段173號","TEL":"03-5722777","COUNTYNAME":"新竹市","TOWNNAME":"東區","MARKTYPE":"994","Class":"4"}},{"type":"Feature","id":25692,"geometry":{"type":"Point","coordinates":[120.99173108533093,24.799381399757912]},"properties":{"OBJECTID":25692,"LANDMARKID":"1001800000267","LANDMARKCO":"402","LANDMARKNA":"大眾電信-光復專賣店","LANDMARKAD":"1001801","ADDRESS":"新竹市光復路2段191號 (97/12/31起)","TEL":"03-5727605","COUNTYNAME":"新竹市","TOWNNAME":"東區","MARKTYPE":"994","Class":"4"}},{"type":"Feature","id":25649,"geometry":{"type":"Point","coordinates":[120.96588519666201,24.768350729865112]},"properties":{"OBJECTID":25649,"LANDMARKID":"1001800000157","LANDMARKCO":"203","LANDMARKNA":"私立矽谷雙語中小學","LANDMARKAD":"1001801","ADDRESS":"新竹市藝術路2號","TEL":"03-5296380","COUNTYNAME":"新竹市","TOWNNAME":"東區","MARKTYPE":"992","Class":"2"}},{"type":"Feature","id":25650,"geometry":{"type":"Point","coordinates":[120.99686145502551,24.796352557661866]},"properties":{"OBJECTID":25650,"LANDMARKID":"1001800000091","LANDMARKCO":"201","LANDMARKNA":"國立清華大學","LANDMARKAD":"1001801","ADDRESS":"新竹市光復路二段101號","TEL":"035-715131","COUNTYNAME":"新竹市","TOWNNAME":"東區","MARKTYPE":"992","Class":"2"}},{"type":"Feature","id":25651,"geometry":{"type":"Point","coordinates":[120.96482488106659,24.794298930047358]},"properties":{"OBJECTID":25651,"LANDMARKID":"1001800000092","LANDMARKCO":"201","LANDMARKNA":"國立新竹師範學院","LANDMARKAD":"1001801","ADDRESS":"新竹市南大路521號","TEL":"035-213132","COUNTYNAME":"新竹市","TOWNNAME":"東區","MARKTYPE":"992","Class":"2"}},{"type":"Feature","id":25652,"geometry":{"type":"Point","coordinates":[120.98326444002841,24.79830010944552]},"properties":{"OBJECTID":25652,"LANDMARKID":"1001800000093","LANDMARKCO":"201","LANDMARKNA":"國立交通大學博愛校區","LANDMARKAD":"1001801","ADDRESS":"新竹市博愛街75號","TEL":"03-5726516","COUNTYNAME":"新竹市","TOWNNAME":"東區","MARKTYPE":"992","Class":"2"}},{"type":"Feature","id":25653,"geometry":{"type":"Point","coordinates":[120.97319009229575,24.792985415443344]},"properties":{"OBJECTID":25653,"LANDMARKID":"1001800000094","LANDMARKCO":"201","LANDMARKNA":"聖經學院","LANDMARKAD":"1001801","ADDRESS":"新竹市高峰路56號","TEL":"03-5217125","COUNTYNAME":"新竹市","TOWNNAME":"東區","MARKTYPE":"992","Class":"2"}},{"type":"Feature","id":25654,"geometry":{"type":"Point","coordinates":[120.96482488106659,24.794298930047358]},"properties":{"OBJECTID":25654,"LANDMARKID":"1001800000095","LANDMARKCO":"201","LANDMARKNA":"國立新竹教育大學","LANDMARKAD":"1001801","ADDRESS":"新竹市南大路521號","TEL":"03-5213132","COUNTYNAME":"新竹市","TOWNNAME":"東區","MARKTYPE":"992","Class":"2"}},{"type":"Feature","id":25655,"geometry":{"type":"Point","coordinates":[121.00386655367167,24.782649411133505]},"properties":{"OBJECTID":25655,"LANDMARKID":"1001800000210","LANDMARKCO":"308","LANDMARKNA":"國1-新竹交流道-北上","LANDMARKAD":"1001801","ADDRESS":"新竹市東區","TEL":" ","COUNTYNAME":"新竹市","TOWNNAME":"東區","MARKTYPE":"993","Class":"308"}},{"type":"Feature","id":25656,"geometry":{"type":"Point","coordinates":[120.99221879711331,24.820934519506416]},"properties":{"OBJECTID":25656,"LANDMARKID":"1001800000211","LANDMARKCO":"308","LANDMARKNA":"台68-新竹二交流道-西行","LANDMARKAD":"1001801","ADDRESS":"新竹市東區","TEL":" ","COUNTYNAME":"新竹市","TOWNNAME":"東區","MARKTYPE":"993","Class":"308"}},{"type":"Feature","id":25657,"geometry":{"type":"Point","coordinates":[121.0147908388108,24.807187756752377]},"properties":{"OBJECTID":25657,"LANDMARKID":"1001800000212","LANDMARKCO":"308","LANDMARKNA":"台68-新竹科園交流道-西行","LANDMARKAD":"1001801","ADDRESS":"新竹市東區","TEL":" ","COUNTYNAME":"新竹市","TOWNNAME":"東區","MARKTYPE":"993","Class":"308"}},{"type":"Feature","id":25658,"geometry":{"type":"Point","coordinates":[120.96052879505308,24.75805164890587]},"properties":{"OBJECTID":25658,"LANDMARKID":"1001800000213","LANDMARKCO":"308","LANDMARKNA":"國3-茄苳交流道-北上","LANDMARKAD":"1001801","ADDRESS":"新竹市香山區","TEL":" ","COUNTYNAME":"新竹市","TOWNNAME":"東區","MARKTYPE":"993","Class":"308"}},{"type":"Feature","id":25659,"geometry":{"type":"Point","coordinates":[120.99754253105961,24.818481022347321]},"properties":{"OBJECTID":25659,"LANDMARKID":"1001800000214","LANDMARKCO":"308","LANDMARKNA":"台68-新竹二交流道-東行","LANDMARKAD":"1001801","ADDRESS":"新竹市東區","TEL":" ","COUNTYNAME":"新竹市","TOWNNAME":"東區","MARKTYPE":"993","Class":"308"}},{"type":"Feature","id":25660,"geometry":{"type":"Point","coordinates":[121.01823751595684,24.803804321621278]},"properties":{"OBJECTID":25660,"LANDMARKID":"1001800000215","LANDMARKCO":"308","LANDMARKNA":"台68-新竹科園交流道-東行","LANDMARKAD":"1001801","ADDRESS":"新竹市東區","TEL":" ","COUNTYNAME":"新竹市","TOWNNAME":"東區","MARKTYPE":"993","Class":"308"}},{"type":"Feature","id":25661,"geometry":{"type":"Point","coordinates":[121.00165140157283,24.793717034775426]},"properties":{"OBJECTID":25661,"LANDMARKID":"1001800000170","LANDMARKCO":"302","LANDMARKNA":"統聯客運-金城站-自營站","LANDMARKAD":"1001801","ADDRESS":"新竹市金城一路13號","TEL":"連絡電話:035-72","COUNTYNAME":"新竹市","TOWNNAME":"東區","MARKTYPE":"993","Class":"302"}},{"type":"Feature","id":25662,"geometry":{"type":"Point","coordinates":[121.00395575178605,24.789428275386499]},"properties":{"OBJECTID":25662,"LANDMARKID":"1001800000171","LANDMARKCO":"302","LANDMARKNA":"阿囉哈客運-新竹站","LANDMARKAD":"1001801","ADDRESS":"新竹市大學路29號","TEL":"(03)571-6667","COUNTYNAME":"新竹市","TOWNNAME":"東區","MARKTYPE":"993","Class":"302"}},{"type":"Feature","id":25663,"geometry":{"type":"Point","coordinates":[120.99295777218869,24.8185571792656]},"properties":{"OBJECTID":25663,"LANDMARKID":"1001800000172","LANDMARKCO":"302","LANDMARKNA":"苗栗汽車客運新竹北站","LANDMARKAD":"1001801","ADDRESS":"新竹市東區中華路一段78巷18弄11號","TEL":" ","COUNTYNAME":"新竹市","TOWNNAME":"東區","MARKTYPE":"993","Class":"302"}},{"type":"Feature","id":25664,"geometry":{"type":"Point","coordinates":[120.97001986228408,24.804422701101696]},"properties":{"OBJECTID":25664,"LANDMARKID":"1001800000173","LANDMARKCO":"302","LANDMARKNA":"苗栗汽車客運新竹上站","LANDMARKAD":"1001801","ADDRESS":"新竹市東區中正路1號","TEL":" ","COUNTYNAME":"新竹市","TOWNNAME":"東區","MARKTYPE":"993","Class":"302"}},{"type":"Feature","id":25665,"geometry":{"type":"Point","coordinates":[120.97212955184138,24.803425970178388]},"properties":{"OBJECTID":25665,"LANDMARKID":"1001800000174","LANDMARKCO":"302","LANDMARKNA":"新竹汽車客運新竹總站","LANDMARKAD":"1001801","ADDRESS":"新竹市東區民族路16之1號","TEL":" ","COUNTYNAME":"新竹市","TOWNNAME":"東區","MARKTYPE":"993","Class":"302"}},{"type":"Feature","id":25666,"geometry":{"type":"Point","coordinates":[120.97237949442521,24.802104561417725]},"properties":{"OBJECTID":25666,"LANDMARKID":"1001800000175","LANDMARKCO":"302","LANDMARKNA":"國光汽車客運新竹站","LANDMARKAD":"1001801","ADDRESS":"新竹市光榮里新竹市光榮里中華路二段471號","TEL":" ","COUNTYNAME":"新竹市","TOWNNAME":"東區","MARKTYPE":"993","Class":"302"}},{"type":"Feature","id":25667,"geometry":{"type":"Point","coordinates":[120.96542337286088,24.801841232429393]},"properties":{"OBJECTID":25667,"LANDMARKID":"1001800000176","LANDMARKCO":"303","LANDMARKNA":"中興嘟嘟房停車場-新竹遠百站","LANDMARKAD":"1001801","ADDRESS":"新竹市東區西大路317號(近遠東百貨)","TEL":"03-5259870","COUNTYNAME":"新竹市","TOWNNAME":"東區","MARKTYPE":"993","Class":"303"}},{"type":"Feature","id":25668,"geometry":{"type":"Point","coordinates":[120.96911459432695,24.801922043364872]},"properties":{"OBJECTID":25668,"LANDMARKID":"1001800000177","LANDMARKCO":"303","LANDMARKNA":"林森路臨時停車場","LANDMARKAD":"1001801","ADDRESS":"新竹市東區林森路","TEL":" ","COUNTYNAME":"新竹市","TOWNNAME":"東區","MARKTYPE":"993","Class":"303"}},{"type":"Feature","id":25669,"geometry":{"type":"Point","coordinates":[120.97389895542456,24.805768398720438]},"properties":{"OBJECTID":25669,"LANDMARKID":"1001800000178","LANDMARKCO":"303","LANDMARKNA":"東大陸橋下停車場","LANDMARKAD":"1001801","ADDRESS":"新竹市東區","TEL":" ","COUNTYNAME":"新竹市","TOWNNAME":"東區","MARKTYPE":"993","Class":"303"}},{"type":"Feature","id":25670,"geometry":{"type":"Point","coordinates":[120.97651464692463,24.809891546863323]},"properties":{"OBJECTID":25670,"LANDMARKID":"1001800000179","LANDMARKCO":"303","LANDMARKNA":"風城停車場","LANDMARKAD":"1001801","ADDRESS":"新竹市東區","TEL":" ","COUNTYNAME":"新竹市","TOWNNAME":"東區","MARKTYPE":"993","Class":"303"}},{"type":"Feature","id":25671,"geometry":{"type":"Point","coordinates":[120.97965159935998,24.799677362353066]},"properties":{"OBJECTID":25671,"LANDMARKID":"1001800000180","LANDMARKCO":"303","LANDMARKNA":"新竹市立體育館停車場","LANDMARKAD":"1001801","ADDRESS":"新竹市東區公園路","TEL":" ","COUNTYNAME":"新竹市","TOWNNAME":"東區","MARKTYPE":"993","Class":"303"}},{"type":"Feature","id":25672,"geometry":{"type":"Point","coordinates":[120.98213844100195,24.80070890402197]},"properties":{"OBJECTID":25672,"LANDMARKID":"1001800000181","LANDMARKCO":"303","LANDMARKNA":"體育場地下停車場","LANDMARKAD":"1001801","ADDRESS":"新竹市東區","TEL":" ","COUNTYNAME":"新竹市","TOWNNAME":"東區","MARKTYPE":"993","Class":"303"}},{"type":"Feature","id":25693,"geometry":{"type":"Point","coordinates":[121.00060332836483,24.794018617039601]},"properties":{"OBJECTID":25693,"LANDMARKID":"1001800000268","LANDMARKCO":"402","LANDMARKNA":"大眾電信-新竹光復店","LANDMARKAD":"1001801","ADDRESS":"新竹市光復路二段196號","TEL":"0968-544062","COUNTYNAME":"新竹市","TOWNNAME":"東區","MARKTYPE":"994","Class":"4"}},{"type":"Feature","id":25718,"geometry":{"type":"Point","coordinates":[120.9418735245809,24.794558158676615]},"properties":{"OBJECTID":25718,"LANDMARKID":"1001800000383","LANDMARKCO":"408","LANDMARKNA":"郵局-新竹牛埔郵局","LANDMARKAD":"1001803","ADDRESS":"新竹市香山區牛埔南路42號","TEL":"(03)5380-214","COUNTYNAME":"新竹市","TOWNNAME":"香山區","MARKTYPE":"994","Class":"4"}},{"type":"Feature","id":25719,"geometry":{"type":"Point","coordinates":[120.92734717479277,24.787527234883903]},"properties":{"OBJECTID":25719,"LANDMARKID":"1001800000384","LANDMARKCO":"408","LANDMARKNA":"郵局-新竹三姓橋郵局","LANDMARKAD":"1001803","ADDRESS":"新竹市香山區中華路5段53號","TEL":"(03)5383-031","COUNTYNAME":"新竹市","TOWNNAME":"香山區","MARKTYPE":"994","Class":"4"}},{"type":"Feature","id":25720,"geometry":{"type":"Point","coordinates":[120.95252130271814,24.757388896903382]},"properties":{"OBJECTID":25720,"LANDMARKID":"1001800000385","LANDMARKCO":"408","LANDMARKNA":"郵局-中華大學郵局","LANDMARKAD":"1001803","ADDRESS":"新竹市香山區五褔路2段707號","TEL":"(03)5377-034","COUNTYNAME":"新竹市","TOWNNAME":"香山區","MARKTYPE":"994","Class":"4"}},{"type":"Feature","id":25721,"geometry":{"type":"Point","coordinates":[120.95543554312444,24.797091890735484]},"properties":{"OBJECTID":25721,"LANDMARKID":"1001800000386","LANDMARKCO":"409","LANDMARKNA":"新竹市農會","LANDMARKAD":"1001803","ADDRESS":"新竹市香山區中山路598號","TEL":"03-5386143","COUNTYNAME":"新竹市","TOWNNAME":"香山區","MARKTYPE":"994","Class":"4"}},{"type":"Feature","id":25722,"geometry":{"type":"Point","coordinates":[120.91291271441909,24.76269203198218]},"properties":{"OBJECTID":25722,"LANDMARKID":"1001800000387","LANDMARKCO":"409","LANDMARKNA":"香山辦事處","LANDMARKAD":"1001803","ADDRESS":"新竹市朝山里中華路5段832號","TEL":"03-5374934","COUNTYNAME":"新竹市","TOWNNAME":"香山區","MARKTYPE":"994","Class":"4"}},{"type":"Feature","id":25723,"geometry":{"type":"Point","coordinates":[120.90518279367296,24.750662790734523]},"properties":{"OBJECTID":25723,"LANDMARKID":"1001800000325","LANDMARKCO":"406","LANDMARKNA":"海山社區公園","LANDMARKAD":"1001803","ADDRESS":"新竹市香山區","TEL":" ","COUNTYNAME":"新竹市","TOWNNAME":"香山區","MARKTYPE":"994","Class":"4"}},{"type":"Feature","id":25724,"geometry":{"type":"Point","coordinates":[120.9236947433823,24.819384059663069]},"properties":{"OBJECTID":25724,"LANDMARKID":"1001800000326","LANDMARKCO":"406","LANDMARKNA":"王金城先生紀念公園","LANDMARKAD":"1001803","ADDRESS":"新竹市香山區","TEL":" ","COUNTYNAME":"新竹市","TOWNNAME":"香山區","MARKTYPE":"994","Class":"4"}},{"type":"Feature","id":25725,"geometry":{"type":"Point","coordinates":[120.92396051467547,24.793508976542117]},"properties":{"OBJECTID":25725,"LANDMARKID":"1001800000327","LANDMARKCO":"406","LANDMARKNA":"香山公園","LANDMARKAD":"1001803","ADDRESS":"新竹市香山區","TEL":" ","COUNTYNAME":"新竹市","TOWNNAME":"香山區","MARKTYPE":"994","Class":"4"}},{"type":"Feature","id":25726,"geometry":{"type":"Point","coordinates":[120.92617754358359,24.789496975968301]},"properties":{"OBJECTID":25726,"LANDMARKID":"1001800000328","LANDMARKCO":"406","LANDMARKNA":"大庄公園","LANDMARKAD":"1001803","ADDRESS":"新竹市香山區","TEL":" ","COUNTYNAME":"新竹市","TOWNNAME":"香山區","MARKTYPE":"994","Class":"4"}},{"type":"Feature","id":25727,"geometry":{"type":"Point","coordinates":[120.94386765402881,24.798643255371609]},"properties":{"OBJECTID":25727,"LANDMARKID":"1001800000329","LANDMARKCO":"406","LANDMARKNA":"牛埔公園","LANDMARKAD":"1001803","ADDRESS":"新竹市香山區","TEL":" ","COUNTYNAME":"新竹市","TOWNNAME":"香山區","MARKTYPE":"994","Class":"4"}},{"type":"Feature","id":25728,"geometry":{"type":"Point","coordinates":[120.94610218169856,24.795501626676735]},"properties":{"OBJECTID":25728,"LANDMARKID":"1001800000330","LANDMARKCO":"406","LANDMARKNA":"中埔公園","LANDMARKAD":"1001803","ADDRESS":"新竹市香山區","TEL":" ","COUNTYNAME":"新竹市","TOWNNAME":"香山區","MARKTYPE":"994","Class":"4"}},{"type":"Feature","id":25729,"geometry":{"type":"Point","coordinates":[120.9310098736384,24.745320605386588]},"properties":{"OBJECTID":25729,"LANDMARKID":"1001800000331","LANDMARKCO":"406","LANDMARKNA":"大湖社區公園","LANDMARKAD":"1001803","ADDRESS":"新竹市香山區","TEL":" ","COUNTYNAME":"新竹市","TOWNNAME":"香山區","MARKTYPE":"994","Class":"4"}},{"type":"Feature","id":25730,"geometry":{"type":"Point","coordinates":[120.91522506728013,24.779763835207596]},"properties":{"OBJECTID":25730,"LANDMARKID":"1001800000323","LANDMARKCO":"405","LANDMARKNA":"台塑加油站-觀海站(台塑)","LANDMARKAD":"1001803","ADDRESS":"新竹市中華路五段416巷100號","TEL":"03-5401133","COUNTYNAME":"新竹市","TOWNNAME":"香山區","MARKTYPE":"994","Class":"4"}},{"type":"Feature","id":25731,"geometry":{"type":"Point","coordinates":[120.90616647989124,24.745646482482304]},"properties":{"OBJECTID":25731,"LANDMARKID":"1001800000324","LANDMARKCO":"405","LANDMARKNA":"全國加油站-新竹站（台塑）","LANDMARKAD":"1001803","ADDRESS":"新竹市中華路六段182號","TEL":"035-374102","COUNTYNAME":"新竹市","TOWNNAME":"香山區","MARKTYPE":"994","Class":"4"}},{"type":"Feature","id":25732,"geometry":{"type":"Point","coordinates":[120.9263866116173,24.79180724741444]},"properties":{"OBJECTID":25732,"LANDMARKID":"1001800000059","LANDMARKCO":"107","LANDMARKNA":"新竹市警察局中華派出所","LANDMARKAD":"1001803","ADDRESS":"新竹市大庄路432號","TEL":"03-5302487","COUNTYNAME":"新竹市","TOWNNAME":"香山區","MARKTYPE":"991","Class":"1"}},{"type":"Feature","id":25733,"geometry":{"type":"Point","coordinates":[120.94298002221392,24.797733655198282]},"properties":{"OBJECTID":25733,"LANDMARKID":"1001800000028","LANDMARKCO":"103","LANDMARKNA":"新竹巿香山衛生所","LANDMARKAD":"1001803","ADDRESS":"新竹市香山區牛埔路428號","TEL":"035-388109","COUNTYNAME":"新竹市","TOWNNAME":"香山區","MARKTYPE":"991","Class":"1"}},{"type":"Feature","id":25734,"geometry":{"type":"Point","coordinates":[120.94194619850633,24.79712992890196]},"properties":{"OBJECTID":25734,"LANDMARKID":"1001800000087","LANDMARKCO":"108","LANDMARKNA":"新竹市香山區區公所","LANDMARKAD":"1001803","ADDRESS":"新竹市香山區牛埔路446號","TEL":"035-307105","COUNTYNAME":"新竹市","TOWNNAME":"香山區","MARKTYPE":"991","Class":"1"}},{"type":"Feature","id":25735,"geometry":{"type":"Point","coordinates":[120.9426541510453,24.797593642978075]},"properties":{"OBJECTID":25735,"LANDMARKID":"1001800000054","LANDMARKCO":"107","LANDMARKNA":"嘉義縣消防局消防局香山消防分隊","LANDMARKAD":"1001803","ADDRESS":"新竹市香山區牛埔路434號","TEL":"035-389360","COUNTYNAME":"新竹市","TOWNNAME":"香山區","MARKTYPE":"991","Class":"1"}},{"type":"Feature","id":25736,"geometry":{"type":"Point","coordinates":[120.9148136376341,24.766444908274828]},"properties":{"OBJECTID":25736,"LANDMARKID":"1001800000055","LANDMARKCO":"107","LANDMARKNA":"嘉義縣消防局消防局朝山消防分隊","LANDMARKAD":"1001803","ADDRESS":"新竹市香山區中華路五段688號","TEL":"035-376753","COUNTYNAME":"新竹市","TOWNNAME":"香山區","MARKTYPE":"991","Class":"1"}},{"type":"Feature","id":25694,"geometry":{"type":"Point","coordinates":[120.96963344421611,24.804299181193297]},"properties":{"OBJECTID":25694,"LANDMARKID":"1001800000269","LANDMARKCO":"402","LANDMARKNA":"大眾電信(震旦通訊)-新竹東門店","LANDMARKAD":"1001801","ADDRESS":"新竹市東門街124號","TEL":"03-5252779","COUNTYNAME":"新竹市","TOWNNAME":"東區","MARKTYPE":"994","Class":"4"}},{"type":"Feature","id":25695,"geometry":{"type":"Point","coordinates":[120.97160183358932,24.804290925542059]},"properties":{"OBJECTID":25695,"LANDMARKID":"1001800000270","LANDMARKCO":"402","LANDMARKNA":"大眾電信-新竹東門店","LANDMARKAD":"1001801","ADDRESS":"新竹市東門街96號","TEL":"0968-544807","COUNTYNAME":"新竹市","TOWNNAME":"東區","MARKTYPE":"994","Class":"4"}},{"type":"Feature","id":25696,"geometry":{"type":"Point","coordinates":[120.97717066878245,24.805718321986383]},"properties":{"OBJECTID":25696,"LANDMARKID":"1001800000271","LANDMARKCO":"402","LANDMARKNA":"大眾電信-兄弟通信行","LANDMARKAD":"1001801","ADDRESS":"新竹市東區中華路二段212號","TEL":"03-5438886","COUNTYNAME":"新竹市","TOWNNAME":"東區","MARKTYPE":"994","Class":"4"}},{"type":"Feature","id":25697,"geometry":{"type":"Point","coordinates":[121.00125610137795,24.793558148227905]},"properties":{"OBJECTID":25697,"LANDMARKID":"1001800000272","LANDMARKCO":"402","LANDMARKNA":"大眾電信-一六九行","LANDMARKAD":"1001801","ADDRESS":"新竹市東區光復路二段156號","TEL":"03-5719929","COUNTYNAME":"新竹市","TOWNNAME":"東區","MARKTYPE":"994","Class":"4"}},{"type":"Feature","id":25698,"geometry":{"type":"Point","coordinates":[120.99173108533093,24.799381399757912]},"properties":{"OBJECTID":25698,"LANDMARKID":"1001800000273","LANDMARKCO":"402","LANDMARKNA":"大眾電信-旭昇電話行","LANDMARKAD":"1001801","ADDRESS":"新竹市東區光復路二段191號","TEL":"03-5727605","COUNTYNAME":"新竹市","TOWNNAME":"東區","MARKTYPE":"994","Class":"4"}},{"type":"Feature","id":25699,"geometry":{"type":"Point","coordinates":[121.02438675573255,24.776591016752832]},"properties":{"OBJECTID":25699,"LANDMARKID":"1001800000274","LANDMARKCO":"402","LANDMARKNA":"大眾電信-共展通信行","LANDMARKAD":"1001801","ADDRESS":"新竹市東區金山街120號","TEL":"03-5630660","COUNTYNAME":"新竹市","TOWNNAME":"東區","MARKTYPE":"994","Class":"4"}},{"type":"Feature","id":25700,"geometry":{"type":"Point","coordinates":[120.96987272297346,24.797618096586735]},"properties":{"OBJECTID":25700,"LANDMARKID":"1001800000275","LANDMARKCO":"402","LANDMARKNA":"大眾電信(震旦通訊)-新竹南大店","LANDMARKAD":"1001801","ADDRESS":"新竹市南大路333號","TEL":"03-5621808","COUNTYNAME":"新竹市","TOWNNAME":"東區","MARKTYPE":"994","Class":"4"}},{"type":"Feature","id":25701,"geometry":{"type":"Point","coordinates":[121.00530308867143,24.779853009083585]},"properties":{"OBJECTID":25701,"LANDMARKID":"1001800000276","LANDMARKCO":"402","LANDMARKNA":"中華電信-科園服務中心","LANDMARKAD":"1001801","ADDRESS":"新竹市科學工業園區工業東二路1號","TEL":"123或0800-080-123","COUNTYNAME":"新竹市","TOWNNAME":"東區","MARKTYPE":"994","Class":"4"}},{"type":"Feature","id":25702,"geometry":{"type":"Point","coordinates":[121.02046155123072,24.781828422539288]},"properties":{"OBJECTID":25702,"LANDMARKID":"1001800000421","LANDMARKCO":"601","LANDMARKNA":"新竹老爺大酒店","LANDMARKAD":"1001801","ADDRESS":"新竹市東區光復路1段227號","TEL":"03-563-1122","COUNTYNAME":"新竹市","TOWNNAME":"東區","MARKTYPE":"996","Class":"6"}},{"type":"Feature","id":25703,"geometry":{"type":"Point","coordinates":[120.97791225167614,24.806485538904504]},"properties":{"OBJECTID":25703,"LANDMARKID":"1001800000422","LANDMARKCO":"601","LANDMARKNA":"新竹國賓大飯店","LANDMARKAD":"1001801","ADDRESS":"新竹市中華路2段188號","TEL":"03-515-1111","COUNTYNAME":"新竹市","TOWNNAME":"東區","MARKTYPE":"996","Class":"6"}},{"type":"Feature","id":25704,"geometry":{"type":"Point","coordinates":[120.99830113635946,24.796613140840769]},"properties":{"OBJECTID":25704,"LANDMARKID":"1001800000419","LANDMARKCO":"511","LANDMARKNA":"清大夜市","LANDMARKAD":"1001801","ADDRESS":"新竹市東區","TEL":" ","COUNTYNAME":"新竹市","TOWNNAME":"東區","MARKTYPE":"995","Class":"5"}},{"type":"Feature","id":25705,"geometry":{"type":"Point","coordinates":[120.98664861247754,24.795111930786401]},"properties":{"OBJECTID":25705,"LANDMARKID":"1001800000394","LANDMARKCO":"503","LANDMARKNA":"十八尖山","LANDMARKAD":"1001801","ADDRESS":"新竹市東區","TEL":" ","COUNTYNAME":"新竹市","TOWNNAME":"東區","MARKTYPE":"995","Class":"5"}},{"type":"Feature","id":25706,"geometry":{"type":"Point","coordinates":[121.00430806819284,24.805199836795122]},"properties":{"OBJECTID":25706,"LANDMARKID":"1001800000398","LANDMARKCO":"505","LANDMARKNA":"HCR颺小型賽車場","LANDMARKAD":"1001801","ADDRESS":"新竹市東區水利路83之11號","TEL":"03-5745630","COUNTYNAME":"新竹市","TOWNNAME":"東區","MARKTYPE":"995","Class":"5"}},{"type":"Feature","id":25707,"geometry":{"type":"Point","coordinates":[120.97738304167571,24.80376075833518]},"properties":{"OBJECTID":25707,"LANDMARKID":"1001800000416","LANDMARKCO":"511","LANDMARKNA":"花園街觀光夜市","LANDMARKAD":"1001801","ADDRESS":"新竹市東區花園街","TEL":" ","COUNTYNAME":"新竹市","TOWNNAME":"東區","MARKTYPE":"995","Class":"5"}},{"type":"Feature","id":25708,"geometry":{"type":"Point","coordinates":[120.97028534583235,24.776107498111212]},"properties":{"OBJECTID":25708,"LANDMARKID":"1001800000395","LANDMARKCO":"503","LANDMARKNA":"青草湖","LANDMARKAD":"1001801","ADDRESS":"新竹市東區","TEL":" ","COUNTYNAME":"新竹市","TOWNNAME":"東區","MARKTYPE":"995","Class":"5"}},{"type":"Feature","id":25709,"geometry":{"type":"Point","coordinates":[120.98472988897591,24.792574189823906]},"properties":{"OBJECTID":25709,"LANDMARKID":"1001800000420","LANDMARKCO":"513","LANDMARKNA":"十八尖山","LANDMARKAD":"1001801","ADDRESS":"新竹市東區","TEL":" ","COUNTYNAME":"新竹市","TOWNNAME":"東區","MARKTYPE":"995","Class":"5"}},{"type":"Feature","id":25710,"geometry":{"type":"Point","coordinates":[120.9263502446445,24.787068898412677]},"properties":{"OBJECTID":25710,"LANDMARKID":"1001800000292","LANDMARKCO":"405","LANDMARKNA":"中油加油站-百祥站","LANDMARKAD":"1001803","ADDRESS":"新竹市中華路5段111號","TEL":"03-5387876","COUNTYNAME":"新竹市","TOWNNAME":"香山區","MARKTYPE":"994","Class":"4"}},{"type":"Feature","id":25711,"geometry":{"type":"Point","coordinates":[120.95431340006245,24.754413753233244]},"properties":{"OBJECTID":25711,"LANDMARKID":"1001800000293","LANDMARKCO":"405","LANDMARKNA":"中油加油站-茄苳站","LANDMARKAD":"1001803","ADDRESS":"新竹市香山區茄苳里五福路二段900號","TEL":"035-5202858","COUNTYNAME":"新竹市","TOWNNAME":"香山區","MARKTYPE":"994","Class":"4"}},{"type":"Feature","id":25712,"geometry":{"type":"Point","coordinates":[120.9306182075666,24.806715186606009]},"properties":{"OBJECTID":25712,"LANDMARKID":"1001800000294","LANDMARKCO":"405","LANDMARKNA":"中油加油站-新竹站","LANDMARKAD":"1001803","ADDRESS":"新竹市虎山里延平路二段436號","TEL":"03-5397326","COUNTYNAME":"新竹市","TOWNNAME":"香山區","MARKTYPE":"994","Class":"4"}},{"type":"Feature","id":25713,"geometry":{"type":"Point","coordinates":[120.90865298429816,24.751183377249891]},"properties":{"OBJECTID":25713,"LANDMARKID":"1001800000295","LANDMARKCO":"405","LANDMARKNA":"統一速邁樂加油站-新竹加油站(中油)","LANDMARKAD":"1001803","ADDRESS":"新竹市中華路6段60號","TEL":" ","COUNTYNAME":"新竹市","TOWNNAME":"香山區","MARKTYPE":"994","Class":"4"}},{"type":"Feature","id":25714,"geometry":{"type":"Point","coordinates":[120.92622462716957,24.820423956126181]},"properties":{"OBJECTID":25714,"LANDMARKID":"1001800000296","LANDMARKCO":"405","LANDMARKNA":"中油加油站-港南站","LANDMARKAD":"1001803","ADDRESS":"新竹市海埔路142巷55號","TEL":"03-5380698","COUNTYNAME":"新竹市","TOWNNAME":"香山區","MARKTYPE":"994","Class":"4"}},{"type":"Feature","id":25715,"geometry":{"type":"Point","coordinates":[120.92732843199813,24.787964246017143]},"properties":{"OBJECTID":25715,"LANDMARKID":"1001800000297","LANDMARKCO":"405","LANDMARKNA":"中油加油站-香山站(中油直營)","LANDMARKAD":"1001803","ADDRESS":"新竹市中華路五段54號","TEL":"035-383201","COUNTYNAME":"新竹市","TOWNNAME":"香山區","MARKTYPE":"994","Class":"4"}},{"type":"Feature","id":25716,"geometry":{"type":"Point","coordinates":[120.92807872708744,24.788268265728089]},"properties":{"OBJECTID":25716,"LANDMARKID":"1001800000278","LANDMARKCO":"402","LANDMARKNA":"亞太行動寬頻電信-新竹香山加盟服務中心","LANDMARKAD":"1001803","ADDRESS":"新竹市中華路5段28號","TEL":"03-5382858","COUNTYNAME":"新竹市","TOWNNAME":"香山區","MARKTYPE":"994","Class":"4"}},{"type":"Feature","id":25717,"geometry":{"type":"Point","coordinates":[120.90578031453613,24.743807844102211]},"properties":{"OBJECTID":25717,"LANDMARKID":"1001800000382","LANDMARKCO":"408","LANDMARKNA":"郵局-新竹內湖路郵局","LANDMARKAD":"1001803","ADDRESS":"新竹市香山區內湖路68號","TEL":"(03)5374-709","COUNTYNAME":"新竹市","TOWNNAME":"香山區","MARKTYPE":"994","Class":"4"}},{"type":"Feature","id":25737,"geometry":{"type":"Point","coordinates":[120.94292244185506,24.797751849401028]},"properties":{"OBJECTID":25737,"LANDMARKID":"1001800000056","LANDMARKCO":"107","LANDMARKNA":"新竹市警察局第三分局","LANDMARKAD":"1001803","ADDRESS":"新竹市香山區埔前里牛埔路432號","TEL":"035-380040","COUNTYNAME":"新竹市","TOWNNAME":"香山區","MARKTYPE":"991","Class":"1"}},{"type":"Feature","id":25762,"geometry":{"type":"Point","coordinates":[120.94604431853729,24.755700906498323]},"properties":{"OBJECTID":25762,"LANDMARKID":"1001800000124","LANDMARKCO":"203","LANDMARKNA":"市立茄苳國小","LANDMARKAD":"1001803","ADDRESS":"新竹市香山區柯仔楠62號","TEL":"035-373543","COUNTYNAME":"新竹市","TOWNNAME":"香山區","MARKTYPE":"992","Class":"2"}},{"type":"Feature","id":25763,"geometry":{"type":"Point","coordinates":[120.90452544995379,24.765294448116698]},"properties":{"OBJECTID":25763,"LANDMARKID":"1001800000204","LANDMARKCO":"305","LANDMARKNA":"海山漁港","LANDMARKAD":"1001803","ADDRESS":"新竹市香山區","TEL":" ","COUNTYNAME":"新竹市","TOWNNAME":"香山區","MARKTYPE":"993","Class":"305"}},{"type":"Feature","id":25764,"geometry":{"type":"Point","coordinates":[120.91410396360163,24.736974182185545]},"properties":{"OBJECTID":25764,"LANDMARKID":"1001800000216","LANDMARKCO":"308","LANDMARKNA":"國3-香山交流道-北上","LANDMARKAD":"1001803","ADDRESS":"新竹市香山區","TEL":" ","COUNTYNAME":"新竹市","TOWNNAME":"香山區","MARKTYPE":"993","Class":"308"}},{"type":"Feature","id":25765,"geometry":{"type":"Point","coordinates":[120.95591581502028,24.757033389036391]},"properties":{"OBJECTID":25765,"LANDMARKID":"1001800000217","LANDMARKCO":"308","LANDMARKNA":"國3-茄苳交流道-南下","LANDMARKAD":"1001803","ADDRESS":"新竹市香山區","TEL":" ","COUNTYNAME":"新竹市","TOWNNAME":"香山區","MARKTYPE":"993","Class":"308"}},{"type":"Feature","id":25766,"geometry":{"type":"Point","coordinates":[120.91997017440329,24.796282333368676]},"properties":{"OBJECTID":25766,"LANDMARKID":"1001800000218","LANDMARKCO":"308","LANDMARKNA":"台61-香北路平交匝道-北上","LANDMARKAD":"1001803","ADDRESS":" ","TEL":" ","COUNTYNAME":"新竹市","TOWNNAME":"香山區","MARKTYPE":"993","Class":"308"}},{"type":"Feature","id":25767,"geometry":{"type":"Point","coordinates":[120.91530992871755,24.781551568712576]},"properties":{"OBJECTID":25767,"LANDMARKID":"1001800000219","LANDMARKCO":"308","LANDMARKNA":"台61-美山連絡道平交匝道-北上","LANDMARKAD":"1001803","ADDRESS":" ","TEL":" ","COUNTYNAME":"新竹市","TOWNNAME":"香山區","MARKTYPE":"993","Class":"308"}},{"type":"Feature","id":25768,"geometry":{"type":"Point","coordinates":[120.91417266410889,24.775740252056345]},"properties":{"OBJECTID":25768,"LANDMARKID":"1001800000220","LANDMARKCO":"308","LANDMARKNA":"台61-美山連絡道平交匝道-南下","LANDMARKAD":"1001803","ADDRESS":" ","TEL":" ","COUNTYNAME":"新竹市","TOWNNAME":"香山區","MARKTYPE":"993","Class":"308"}},{"type":"Feature","id":25769,"geometry":{"type":"Point","coordinates":[120.91106386570286,24.764874603361399]},"properties":{"OBJECTID":25769,"LANDMARKID":"1001800000221","LANDMARKCO":"308","LANDMARKNA":"台61-海山路平交匝道-北上","LANDMARKAD":"1001803","ADDRESS":" ","TEL":" ","COUNTYNAME":"新竹市","TOWNNAME":"香山區","MARKTYPE":"993","Class":"308"}},{"type":"Feature","id":25770,"geometry":{"type":"Point","coordinates":[120.90731034555087,24.760467761003589]},"properties":{"OBJECTID":25770,"LANDMARKID":"1001800000222","LANDMARKCO":"308","LANDMARKNA":"台61-海山路平交匝道-南下","LANDMARKAD":"1001803","ADDRESS":" ","TEL":" ","COUNTYNAME":"新竹市","TOWNNAME":"香山區","MARKTYPE":"993","Class":"308"}},{"type":"Feature","id":25771,"geometry":{"type":"Point","coordinates":[120.90585955272236,24.753682281514948]},"properties":{"OBJECTID":25771,"LANDMARKID":"1001800000223","LANDMARKCO":"308","LANDMARKNA":"台61-長興街106巷平交匝道-北上","LANDMARKAD":"1001803","ADDRESS":" ","TEL":" ","COUNTYNAME":"新竹市","TOWNNAME":"香山區","MARKTYPE":"993","Class":"308"}},{"type":"Feature","id":25772,"geometry":{"type":"Point","coordinates":[120.90424910360808,24.749684152153602]},"properties":{"OBJECTID":25772,"LANDMARKID":"1001800000224","LANDMARKCO":"308","LANDMARKNA":"台61-長興街106巷平交匝道-南下","LANDMARKAD":"1001803","ADDRESS":" ","TEL":" ","COUNTYNAME":"新竹市","TOWNNAME":"香山區","MARKTYPE":"993","Class":"308"}},{"type":"Feature","id":25773,"geometry":{"type":"Point","coordinates":[120.90153281143101,24.746112045280931]},"properties":{"OBJECTID":25773,"LANDMARKID":"1001800000225","LANDMARKCO":"308","LANDMARKNA":"台61-香山連絡道平交匝道-北上","LANDMARKAD":"1001803","ADDRESS":" ","TEL":" ","COUNTYNAME":"新竹市","TOWNNAME":"香山區","MARKTYPE":"993","Class":"308"}},{"type":"Feature","id":25774,"geometry":{"type":"Point","coordinates":[120.89219676056811,24.740227249758046]},"properties":{"OBJECTID":25774,"LANDMARKID":"1001800000226","LANDMARKCO":"308","LANDMARKNA":"台61-香山連絡道平交匝道-南下","LANDMARKAD":"1001803","ADDRESS":" ","TEL":" ","COUNTYNAME":"新竹市","TOWNNAME":"香山區","MARKTYPE":"993","Class":"308"}},{"type":"Feature","id":25775,"geometry":{"type":"Point","coordinates":[120.91654337762596,24.785645343905166]},"properties":{"OBJECTID":25775,"LANDMARKID":"1001800000227","LANDMARKCO":"308","LANDMARKNA":"台61-中華路五段208巷平交匝道","LANDMARKAD":"1001803","ADDRESS":" ","TEL":" ","COUNTYNAME":"新竹市","TOWNNAME":"香山區","MARKTYPE":"993","Class":"308"}},{"type":"Feature","id":25776,"geometry":{"type":"Point","coordinates":[120.91571067997586,24.783491713601492]},"properties":{"OBJECTID":25776,"LANDMARKID":"1001800000228","LANDMARKCO":"308","LANDMARKNA":"台61-中華路五段320巷平交匝道","LANDMARKAD":"1001803","ADDRESS":" ","TEL":" ","COUNTYNAME":"新竹市","TOWNNAME":"香山區","MARKTYPE":"993","Class":"308"}},{"type":"Feature","id":25777,"geometry":{"type":"Point","coordinates":[120.94316294166043,24.797408008115347]},"properties":{"OBJECTID":25777,"LANDMARKID":"1001800000203","LANDMARKCO":"303","LANDMARKNA":"牛埔地下停車場","LANDMARKAD":"1001803","ADDRESS":"新竹市香山區牛埔路387號","TEL":" ","COUNTYNAME":"新竹市","TOWNNAME":"香山區","MARKTYPE":"993","Class":"303"}},{"type":"Feature","id":25778,"geometry":{"type":"Point","coordinates":[120.9138977115155,24.763153981362876]},"properties":{"OBJECTID":25778,"LANDMARKID":"1001800000169","LANDMARKCO":"301","LANDMARKNA":"香山火車站","LANDMARKAD":"1001803","ADDRESS":"新竹市香山區朝山里中華路五段347巷2弄27號","TEL":" ","COUNTYNAME":"新竹市","TOWNNAME":"香山區","MARKTYPE":"993","Class":"301"}},{"type":"Feature","id":25779,"geometry":{"type":"Point","coordinates":[120.92875100038088,24.788494662408198]},"properties":{"OBJECTID":25779,"LANDMARKID":"1001800000277","LANDMARKCO":"402","LANDMARKNA":"中華電信-新竹香山特約服務中心","LANDMARKAD":"1001803","ADDRESS":"新竹市香山區中華路五段2號","TEL":"03-5397373","COUNTYNAME":"新竹市","TOWNNAME":"香山區","MARKTYPE":"994","Class":"4"}},{"type":"Feature","id":25780,"geometry":{"type":"Point","coordinates":[120.90498309196866,24.778119151053119]},"properties":{"OBJECTID":25780,"LANDMARKID":"1001800000396","LANDMARKCO":"503","LANDMARKNA":"香山溼地","LANDMARKAD":"1001803","ADDRESS":"新竹市香山區","TEL":" ","COUNTYNAME":"新竹市","TOWNNAME":"香山區","MARKTYPE":"995","Class":"5"}},{"type":"Feature","id":25781,"geometry":{"type":"Point","coordinates":[120.91085627913954,24.81049380768194]},"properties":{"OBJECTID":25781,"LANDMARKID":"1001800000397","LANDMARKCO":"503","LANDMARKNA":"金城湖賞鳥區","LANDMARKAD":"1001803","ADDRESS":"新竹市香山區","TEL":" ","COUNTYNAME":"新竹市","TOWNNAME":"香山區","MARKTYPE":"995","Class":"5"}},{"type":"Feature","id":25738,"geometry":{"type":"Point","coordinates":[120.91469168766382,24.766246680578575]},"properties":{"OBJECTID":25738,"LANDMARKID":"1001800000057","LANDMARKCO":"107","LANDMARKNA":"新竹市警察局朝山派出所","LANDMARKAD":"1001803","ADDRESS":"新竹市香山區中華路五段690號","TEL":"035-373165","COUNTYNAME":"新竹市","TOWNNAME":"香山區","MARKTYPE":"991","Class":"1"}},{"type":"Feature","id":25739,"geometry":{"type":"Point","coordinates":[120.94292244185506,24.797751849401028]},"properties":{"OBJECTID":25739,"LANDMARKID":"1001800000058","LANDMARKCO":"107","LANDMARKNA":"新竹市警察局香山派出所","LANDMARKAD":"1001803","ADDRESS":"新竹市香山區牛埔路432號","TEL":"035-386348","COUNTYNAME":"新竹市","TOWNNAME":"香山區","MARKTYPE":"991","Class":"1"}},{"type":"Feature","id":25740,"geometry":{"type":"Point","coordinates":[120.94283226664012,24.797720180486458]},"properties":{"OBJECTID":25740,"LANDMARKID":"1001800000053","LANDMARKCO":"106","LANDMARKNA":"新竹市香山區戶政事務所","LANDMARKAD":"1001803","ADDRESS":"新竹市香山區牛埔路430號","TEL":"035-388639","COUNTYNAME":"新竹市","TOWNNAME":"香山區","MARKTYPE":"991","Class":"1"}},{"type":"Feature","id":25741,"geometry":{"type":"Point","coordinates":[120.9523138715471,24.796970279073555]},"properties":{"OBJECTID":25741,"LANDMARKID":"1001800000026","LANDMARKCO":"101","LANDMARKNA":"調查局新竹市調查站","LANDMARKAD":"1001803","ADDRESS":"新竹市香山區經國路三段126號","TEL":"035-386151","COUNTYNAME":"新竹市","TOWNNAME":"香山區","MARKTYPE":"991","Class":"1"}},{"type":"Feature","id":25742,"geometry":{"type":"Point","coordinates":[120.91702745672002,24.763277483685222]},"properties":{"OBJECTID":25742,"LANDMARKID":"1001800000027","LANDMARKCO":"101","LANDMARKNA":"農業委員會畜產試驗所新竹分所","LANDMARKAD":"1001803","ADDRESS":"新竹市香山區大湖路51巷1號","TEL":"035-373073","COUNTYNAME":"新竹市","TOWNNAME":"香山區","MARKTYPE":"991","Class":"1"}},{"type":"Feature","id":25743,"geometry":{"type":"Point","coordinates":[120.94339200209956,24.796106427126187]},"properties":{"OBJECTID":25743,"LANDMARKID":"1001800000160","LANDMARKCO":"204","LANDMARKNA":"新竹市立圖書館香山分館","LANDMARKAD":"1001803","ADDRESS":"新竹市香山區牛埔路389號","TEL":" ","COUNTYNAME":"新竹市","TOWNNAME":"香山區","MARKTYPE":"992","Class":"2"}},{"type":"Feature","id":25744,"geometry":{"type":"Point","coordinates":[120.93365023806372,24.74567365168183]},"properties":{"OBJECTID":25744,"LANDMARKID":"1001800000122","LANDMARKCO":"203","LANDMARKNA":"市立大湖國小","LANDMARKAD":"1001803","ADDRESS":"新竹市香山區菜瓜坑8號","TEL":"035-374609","COUNTYNAME":"新竹市","TOWNNAME":"香山區","MARKTYPE":"992","Class":"2"}},{"type":"Feature","id":25745,"geometry":{"type":"Point","coordinates":[120.9303746126929,24.785034611042363]},"properties":{"OBJECTID":25745,"LANDMARKID":"1001800000109","LANDMARKCO":"202","LANDMARKNA":"市立香山高中","LANDMARKAD":"1001803","ADDRESS":"新竹市香山區元培街124號","TEL":"035-384332","COUNTYNAME":"新竹市","TOWNNAME":"香山區","MARKTYPE":"992","Class":"2"}},{"type":"Feature","id":25746,"geometry":{"type":"Point","coordinates":[120.91119945341053,24.742222465777079]},"properties":{"OBJECTID":25746,"LANDMARKID":"1001800000110","LANDMARKCO":"203","LANDMARKNA":"市立內湖國中","LANDMARKAD":"1001803","ADDRESS":"新竹市香山區五福路一段12號","TEL":"035-373484","COUNTYNAME":"新竹市","TOWNNAME":"香山區","MARKTYPE":"992","Class":"2"}},{"type":"Feature","id":25747,"geometry":{"type":"Point","coordinates":[120.94198047091167,24.805280994989385]},"properties":{"OBJECTID":25747,"LANDMARKID":"1001800000111","LANDMARKCO":"203","LANDMARKNA":"市立虎林國中","LANDMARKAD":"1001803","ADDRESS":"新竹市香山區延平路二段76號","TEL":"035-309433","COUNTYNAME":"新竹市","TOWNNAME":"香山區","MARKTYPE":"992","Class":"2"}},{"type":"Feature","id":25748,"geometry":{"type":"Point","coordinates":[120.91268166742901,24.764124701906642]},"properties":{"OBJECTID":25748,"LANDMARKID":"1001800000112","LANDMARKCO":"203","LANDMARKNA":"市立富禮國中","LANDMARKAD":"1001803","ADDRESS":"新竹市香山區富禮街16號","TEL":"035-374793","COUNTYNAME":"新竹市","TOWNNAME":"香山區","MARKTYPE":"992","Class":"2"}},{"type":"Feature","id":25749,"geometry":{"type":"Point","coordinates":[120.92787934043557,24.789401656050487]},"properties":{"OBJECTID":25749,"LANDMARKID":"1001800000113","LANDMARKCO":"203","LANDMARKNA":"市立大庄國小","LANDMARKAD":"1001803","ADDRESS":"新竹市香山區大庄路48號","TEL":"035-384035","COUNTYNAME":"新竹市","TOWNNAME":"香山區","MARKTYPE":"992","Class":"2"}},{"type":"Feature","id":25750,"geometry":{"type":"Point","coordinates":[120.91401884980945,24.765692724412506]},"properties":{"OBJECTID":25750,"LANDMARKID":"1001800000114","LANDMARKCO":"203","LANDMARKNA":"市立朝山國小","LANDMARKAD":"1001803","ADDRESS":"新竹市香山區中華路五段648巷126號","TEL":"035-374304","COUNTYNAME":"新竹市","TOWNNAME":"香山區","MARKTYPE":"992","Class":"2"}},{"type":"Feature","id":25751,"geometry":{"type":"Point","coordinates":[120.90635994735301,24.74210621071169]},"properties":{"OBJECTID":25751,"LANDMARKID":"1001800000115","LANDMARKCO":"203","LANDMARKNA":"市立內湖國小","LANDMARKAD":"1001803","ADDRESS":"新竹市香山區內湖路109號","TEL":"035-373184","COUNTYNAME":"新竹市","TOWNNAME":"香山區","MARKTYPE":"992","Class":"2"}},{"type":"Feature","id":25752,"geometry":{"type":"Point","coordinates":[120.94228824640845,24.796894817655598]},"properties":{"OBJECTID":25752,"LANDMARKID":"1001800000116","LANDMARKCO":"203","LANDMARKNA":"市立香山國小","LANDMARKAD":"1001803","ADDRESS":"新竹市香山區牛埔路387號","TEL":"035-386164","COUNTYNAME":"新竹市","TOWNNAME":"香山區","MARKTYPE":"992","Class":"2"}},{"type":"Feature","id":25753,"geometry":{"type":"Point","coordinates":[120.94118974326803,24.805278958193682]},"properties":{"OBJECTID":25753,"LANDMARKID":"1001800000117","LANDMARKCO":"203","LANDMARKNA":"市立虎林國小","LANDMARKAD":"1001803","ADDRESS":"新竹市香山區延平路二段78號","TEL":"035-381820","COUNTYNAME":"新竹市","TOWNNAME":"香山區","MARKTYPE":"992","Class":"2"}},{"type":"Feature","id":25754,"geometry":{"type":"Point","coordinates":[120.92290511641366,24.814129406346929]},"properties":{"OBJECTID":25754,"LANDMARKID":"1001800000118","LANDMARKCO":"203","LANDMARKNA":"市立港南國小","LANDMARKAD":"1001803","ADDRESS":"新竹市香山區海埔路171巷91號","TEL":"035-382964","COUNTYNAME":"新竹市","TOWNNAME":"香山區","MARKTYPE":"992","Class":"2"}},{"type":"Feature","id":25755,"geometry":{"type":"Point","coordinates":[120.95016491346082,24.79769703694647]},"properties":{"OBJECTID":25755,"LANDMARKID":"1001800000119","LANDMARKCO":"203","LANDMARKNA":"市立頂埔國小","LANDMARKAD":"1001803","ADDRESS":"新竹市香山區頂埔路23號","TEL":"035-304824","COUNTYNAME":"新竹市","TOWNNAME":"香山區","MARKTYPE":"992","Class":"2"}},{"type":"Feature","id":25756,"geometry":{"type":"Point","coordinates":[120.94400678474098,24.796344474227908]},"properties":{"OBJECTID":25756,"LANDMARKID":"1001800000120","LANDMARKCO":"203","LANDMARKNA":"市立香山國小","LANDMARKAD":"1001803","ADDRESS":"新竹市香山區牛埔東路260號","TEL":"03-5386164","COUNTYNAME":"新竹市","TOWNNAME":"香山區","MARKTYPE":"992","Class":"2"}},{"type":"Feature","id":25757,"geometry":{"type":"Point","coordinates":[120.93341244108154,24.745972651246223]},"properties":{"OBJECTID":25757,"LANDMARKID":"1001800000121","LANDMARKCO":"203","LANDMARKNA":"市立大湖國小","LANDMARKAD":"1001803","ADDRESS":"新竹市香山區大湖里五福路一段530號","TEL":"03-5374609","COUNTYNAME":"新竹市","TOWNNAME":"香山區","MARKTYPE":"992","Class":"2"}},{"type":"Feature","id":25758,"geometry":{"type":"Point","coordinates":[120.94037956653374,24.777840754913427]},"properties":{"OBJECTID":25758,"LANDMARKID":"1001800000088","LANDMARKCO":"201","LANDMARKNA":"元培科技大學","LANDMARKAD":"1001803","ADDRESS":"新竹市香山區元培街306號","TEL":"03-5381183","COUNTYNAME":"新竹市","TOWNNAME":"香山區","MARKTYPE":"992","Class":"2"}},{"type":"Feature","id":25759,"geometry":{"type":"Point","coordinates":[120.94338683657601,24.775717720936747]},"properties":{"OBJECTID":25759,"LANDMARKID":"1001800000089","LANDMARKCO":"201","LANDMARKNA":"玄奘大學","LANDMARKAD":"1001803","ADDRESS":"新竹市香山區玄奘路48號","TEL":"03-530225","COUNTYNAME":"新竹市","TOWNNAME":"香山區","MARKTYPE":"992","Class":"2"}},{"type":"Feature","id":25760,"geometry":{"type":"Point","coordinates":[120.95231683700284,24.757337485000498]},"properties":{"OBJECTID":25760,"LANDMARKID":"1001800000090","LANDMARKCO":"201","LANDMARKNA":"中華大學","LANDMARKAD":"1001803","ADDRESS":"新竹市香山區五福路二段707號","TEL":"035-374281","COUNTYNAME":"新竹市","TOWNNAME":"香山區","MARKTYPE":"992","Class":"2"}},{"type":"Feature","id":25761,"geometry":{"type":"Point","coordinates":[120.92948846537779,24.726712161128788]},"properties":{"OBJECTID":25761,"LANDMARKID":"1001800000123","LANDMARKCO":"203","LANDMARKNA":"市立南隘國小","LANDMARKAD":"1001803","ADDRESS":"新竹市香山區南隘里28號","TEL":"035-371405","COUNTYNAME":"新竹市","TOWNNAME":"香山區","MARKTYPE":"992","Class":"2"}},{"type":"Feature","id":25782,"geometry":{"type":"Point","coordinates":[120.40049942614817,23.602210105200733]},"properties":{"OBJECTID":25782,"LANDMARKID":"1001000000640","LANDMARKCO":"405","LANDMARKNA":"中油加油站-溪口站(中油直營)","LANDMARKAD":"1001006","ADDRESS":"嘉義縣溪口鄉溪東村民族西路1號","TEL":"05-2691700","COUNTYNAME":"嘉義縣","TOWNNAME":"溪口鄉","MARKTYPE":"994","Class":"4"}},{"type":"Feature","id":25783,"geometry":{"type":"Point","coordinates":[120.44496711088075,23.59139298449157]},"properties":{"OBJECTID":25783,"LANDMARKID":"1001000000641","LANDMARKCO":"405","LANDMARKNA":"中油加油站-台灣溪口站","LANDMARKAD":"1001006","ADDRESS":"嘉義縣溪口鄉疊溪村下員林16號","TEL":"05-2655931","COUNTYNAME":"嘉義縣","TOWNNAME":"溪口鄉","MARKTYPE":"994","Class":"4"}},{"type":"Feature","id":25784,"geometry":{"type":"Point","coordinates":[120.39564586209374,23.603845563454151]},"properties":{"OBJECTID":25784,"LANDMARKID":"1001000000732","LANDMARKCO":"408","LANDMARKNA":"郵局-溪口郵局","LANDMARKAD":"1001006","ADDRESS":"嘉義縣溪口鄉中正路131號","TEL":"(05)2691-132","COUNTYNAME":"嘉義縣","TOWNNAME":"溪口鄉","MARKTYPE":"994","Class":"4"}},{"type":"Feature","id":25785,"geometry":{"type":"Point","coordinates":[120.3978679383692,23.604190254700704]},"properties":{"OBJECTID":25785,"LANDMARKID":"1001000000768","LANDMARKCO":"409","LANDMARKNA":"嘉義縣溪口鄉農會","LANDMARKAD":"1001006","ADDRESS":"嘉義縣溪口鄉溪東村民生街8號","TEL":"05-2691845~9","COUNTYNAME":"嘉義縣","TOWNNAME":"溪口鄉","MARKTYPE":"994","Class":"4"}},{"type":"Feature","id":25786,"geometry":{"type":"Point","coordinates":[120.39485816044717,23.606418442016292]},"properties":{"OBJECTID":25786,"LANDMARKID":"1001000000059","LANDMARKCO":"103","LANDMARKNA":"嘉義縣溪口鄉衛生所","LANDMARKAD":"1001006","ADDRESS":"嘉義縣溪口鄉中山路1號","TEL":"05-2691046","COUNTYNAME":"嘉義縣","TOWNNAME":"溪口鄉","MARKTYPE":"991","Class":"1"}},{"type":"Feature","id":25787,"geometry":{"type":"Point","coordinates":[120.42446083989495,23.591475139629683]},"properties":{"OBJECTID":25787,"LANDMARKID":"1001000000060","LANDMARKCO":"103","LANDMARKNA":"溪口鄉衛生所柳溝村基層保健中心","LANDMARKAD":"1001006","ADDRESS":"嘉義縣溪口鄉柳溝村阿連庄16號之2","TEL":"05-2696318","COUNTYNAME":"嘉義縣","TOWNNAME":"溪口鄉","MARKTYPE":"991","Class":"1"}},{"type":"Feature","id":25788,"geometry":{"type":"Point","coordinates":[120.39584925993799,23.603402301498537]},"properties":{"OBJECTID":25788,"LANDMARKID":"1001000000061","LANDMARKCO":"103","LANDMARKNA":"嘉義縣溪口鄉民代表會","LANDMARKAD":"1001006","ADDRESS":"嘉義縣溪口鄉溪西村民生街166號","TEL":"05-2691029","COUNTYNAME":"嘉義縣","TOWNNAME":"溪口鄉","MARKTYPE":"991","Class":"1"}},{"type":"Feature","id":25789,"geometry":{"type":"Point","coordinates":[120.42375747552418,23.589952531608571]},"properties":{"OBJECTID":25789,"LANDMARKID":"1001000000159","LANDMARKCO":"107","LANDMARKNA":"嘉義縣警察局柳溝派出所","LANDMARKAD":"1001006","ADDRESS":"嘉義縣溪口鄉柳溝村阿連庄7號","TEL":"05-2691182","COUNTYNAME":"嘉義縣","TOWNNAME":"溪口鄉","MARKTYPE":"991","Class":"1"}},{"type":"Feature","id":25790,"geometry":{"type":"Point","coordinates":[120.39544816418832,23.6036407398277]},"properties":{"OBJECTID":25790,"LANDMARKID":"1001000000160","LANDMARKCO":"107","LANDMARKNA":"嘉義縣警察局溪口分駐所","LANDMARKAD":"1001006","ADDRESS":"嘉義縣溪口鄉溪東村中正路142號","TEL":"05-2691009","COUNTYNAME":"嘉義縣","TOWNNAME":"溪口鄉","MARKTYPE":"991","Class":"1"}},{"type":"Feature","id":25791,"geometry":{"type":"Point","coordinates":[120.39544816418832,23.6036407398277]},"properties":{"OBJECTID":25791,"LANDMARKID":"1001000000161","LANDMARKCO":"107","LANDMARKNA":"嘉義縣消防局溪口消防分隊","LANDMARKAD":"1001006","ADDRESS":"嘉義縣溪口鄉中正路142號","TEL":"05-2691201","COUNTYNAME":"嘉義縣","TOWNNAME":"溪口鄉","MARKTYPE":"991","Class":"1"}},{"type":"Feature","id":25792,"geometry":{"type":"Point","coordinates":[120.39544816418832,23.6036407398277]},"properties":{"OBJECTID":25792,"LANDMARKID":"1001000000083","LANDMARKCO":"106","LANDMARKNA":"嘉義縣溪口鄉戶政事務所","LANDMARKAD":"1001006","ADDRESS":"嘉義縣溪口鄉中正路142號","TEL":"05-2691473","COUNTYNAME":"嘉義縣","TOWNNAME":"溪口鄉","MARKTYPE":"991","Class":"1"}},{"type":"Feature","id":25793,"geometry":{"type":"Point","coordinates":[120.39377660683921,23.602207492632829]},"properties":{"OBJECTID":25793,"LANDMARKID":"1001000000211","LANDMARKCO":"108","LANDMARKNA":"嘉義縣溪口鄉公所","LANDMARKAD":"1001006","ADDRESS":"嘉義縣溪口鄉溪北村7鄰中山路後港89號","TEL":"05-2695950","COUNTYNAME":"嘉義縣","TOWNNAME":"溪口鄉","MARKTYPE":"991","Class":"1"}},{"type":"Feature","id":25794,"geometry":{"type":"Point","coordinates":[120.39447669602251,23.604998768965018]},"properties":{"OBJECTID":25794,"LANDMARKID":"1001000000451","LANDMARKCO":"204","LANDMARKNA":"嘉義縣立圖書館溪口分館","LANDMARKAD":"1001006","ADDRESS":"嘉義縣溪口鄉溪北村後港59號","TEL":" ","COUNTYNAME":"嘉義縣","TOWNNAME":"溪口鄉","MARKTYPE":"992","Class":"2"}},{"type":"Feature","id":25795,"geometry":{"type":"Point","coordinates":[120.40357143589674,23.605139879547984]},"properties":{"OBJECTID":25795,"LANDMARKID":"1001000000363","LANDMARKCO":"203","LANDMARKNA":"縣立溪口國中","LANDMARKAD":"1001006","ADDRESS":"嘉義縣溪口鄉坪頂村中正東路103號","TEL":"05-2693441","COUNTYNAME":"嘉義縣","TOWNNAME":"溪口鄉","MARKTYPE":"992","Class":"2"}},{"type":"Feature","id":25796,"geometry":{"type":"Point","coordinates":[120.4142317030296,23.577348121216513]},"properties":{"OBJECTID":25796,"LANDMARKID":"1001000000364","LANDMARKCO":"203","LANDMARKNA":"縣立柳溝國小","LANDMARKAD":"1001006","ADDRESS":"嘉義縣溪口鄉柳溝村南靖厝5號","TEL":"05-2691071","COUNTYNAME":"嘉義縣","TOWNNAME":"溪口鄉","MARKTYPE":"992","Class":"2"}},{"type":"Feature","id":25797,"geometry":{"type":"Point","coordinates":[120.39399491414811,23.604345933171537]},"properties":{"OBJECTID":25797,"LANDMARKID":"1001000000365","LANDMARKCO":"203","LANDMARKNA":"縣立溪口國小","LANDMARKAD":"1001006","ADDRESS":"嘉義縣溪口鄉溪北村中山路53號","TEL":"05-2691013","COUNTYNAME":"嘉義縣","TOWNNAME":"溪口鄉","MARKTYPE":"992","Class":"2"}},{"type":"Feature","id":25798,"geometry":{"type":"Point","coordinates":[120.37107602658146,23.606720689865377]},"properties":{"OBJECTID":25798,"LANDMARKID":"1001000000366","LANDMARKCO":"203","LANDMARKNA":"縣立柴林國小","LANDMARKAD":"1001006","ADDRESS":"嘉義縣溪口鄉柴林村107號","TEL":"05-2691440","COUNTYNAME":"嘉義縣","TOWNNAME":"溪口鄉","MARKTYPE":"992","Class":"2"}},{"type":"Feature","id":25799,"geometry":{"type":"Point","coordinates":[120.37947458512545,23.592397446389114]},"properties":{"OBJECTID":25799,"LANDMARKID":"1001000000367","LANDMARKCO":"203","LANDMARKNA":"縣立美林國小","LANDMARKAD":"1001006","ADDRESS":"嘉義縣溪口鄉美北村78之3號","TEL":"05-2691150","COUNTYNAME":"嘉義縣","TOWNNAME":"溪口鄉","MARKTYPE":"992","Class":"2"}},{"type":"Feature","id":25800,"geometry":{"type":"Point","coordinates":[120.43915073146599,23.587652181308421]},"properties":{"OBJECTID":25800,"LANDMARKID":"1001000000368","LANDMARKCO":"203","LANDMARKNA":"縣立柳溝國小疊溪分校","LANDMARKAD":"1001006","ADDRESS":"嘉義縣溪口鄉疊溪村5鄰10號","TEL":"05-2651030","COUNTYNAME":"嘉義縣","TOWNNAME":"溪口鄉","MARKTYPE":"992","Class":"2"}}]}